2019-06-19 15:09:57.282860 ATTITUDE {time_boot_ms : 2439150, roll : -1.5768146514892578, pitch : -0.006076432764530182, yaw : -1.6990647315979004, rollspeed : -0.0012612254358828068, pitchspeed : 0.001517080352641642, yawspeed : -0.0012240472715348005}
2019-06-19 15:09:57.290860 SCALED_PRESSURE {time_boot_ms : 2439150, press_abs : 1054.0379638671875, press_diff : 0.0, temperature : 2989}
2019-06-19 15:09:57.545777 RAW_IMU {time_usec : 2439400516, xacc : 0, yacc : 1020, zacc : 0, xgyro : 0, ygyro : 0, zgyro : 0, xmag : -57, ymag : -407, zmag : 206}
2019-06-19 15:09:57.795495 SYS_STATUS {onboard_control_sensors_present : 52493359, onboard_control_sensors_enabled : 35691567, onboard_control_sensors_health : 52468783, load : 0, voltage_battery : 24830, current_battery : 0, battery_remaining : 100, drop_rate_comm : 0, errors_comm : 0, errors_count1 : 0, errors_count2 : 0, errors_count3 : 0, errors_count4 : 0}
2019-06-19 15:09:57.802495 RAW_IMU {time_usec : 2439650416, xacc : 0, yacc : 1020, zacc : 0, xgyro : 0, ygyro : 0, zgyro : 0, xmag : -57, ymag : -407, zmag : 206}
2019-06-19 15:09:58.058612 SYS_STATUS {onboard_control_sensors_present : 52493359, onboard_control_sensors_enabled : 35691567, onboard_control_sensors_health : 52468783, load : 0, voltage_battery : 24830, current_battery : 0, battery_remaining : 100, drop_rate_comm : 0, errors_comm : 0, errors_count1 : 0, errors_count2 : 0, errors_count3 : 0, errors_count4 : 0}
2019-06-19 15:09:58.062607 RAW_IMU {time_usec : 2439900316, xacc : 0, yacc : 1020, zacc : 0, xgyro : 0, ygyro : 0, zgyro : 0, xmag : -57, ymag : -407, zmag : 206}
2019-06-19 15:09:58.063606 SCALED_PRESSURE {time_boot_ms : 2439900, press_abs : 1029.3927001953125, press_diff : 0.0, temperature : 2996}
2019-06-19 15:09:58.188843 HEARTBEAT {type : 12, autopilot : 3, base_mode : 81, custom_mode : 19, system_status : 3, mavlink_version : 3}
2019-06-19 15:09:58.299016 RAW_IMU {time_usec : 2440150216, xacc : 0, yacc : 1020, zacc : 0, xgyro : 0, ygyro : 0, zgyro : 0, xmag : -57, ymag : -407, zmag : 206}
2019-06-19 15:09:58.562288 RAW_IMU {time_usec : 2440400949, xacc : 0, yacc : 1024, zacc : 0, xgyro : 0, ygyro : 0, zgyro : 0, xmag : -57, ymag : -407, zmag : 206}
2019-06-19 15:09:58.563288 SCALED_PRESSURE {time_boot_ms : 2440400, press_abs : 1048.285888671875, press_diff : 0.0, temperature : 2991}
2019-06-19 15:09:58.790472 RAW_IMU {time_usec : 2440650849, xacc : 0, yacc : 1020, zacc : 0, xgyro : 0, ygyro : 0, zgyro : 0, xmag : -57, ymag : -407, zmag : 206}
2019-06-19 15:09:58.791462 SCALED_PRESSURE {time_boot_ms : 2440650, press_abs : 1050.8367919921875, press_diff : 0.0, temperature : 2990}
2019-06-19 15:09:59.036617 ATTITUDE {time_boot_ms : 2440900, roll : -1.5767302513122559, pitch : -0.005912666209042072, yaw : -1.6984020471572876, rollspeed : -0.0013033448485657573, pitchspeed : 0.0017097953241318464, yawspeed : -0.0010308618657290936}
2019-06-19 15:09:59.046622 RAW_IMU {time_usec : 2440900749, xacc : 0, yacc : 869, zacc : 0, xgyro : 0, ygyro : 0, zgyro : 0, xmag : -57, ymag : -407, zmag : 206}
2019-06-19 15:09:59.285670 RAW_IMU {time_usec : 2441150649, xacc : 0, yacc : 1020, zacc : 0, xgyro : 0, ygyro : 0, zgyro : 0, xmag : -57, ymag : -407, zmag : 206}
2019-06-19 15:09:59.286667 SCALED_PRESSURE {time_boot_ms : 2441150, press_abs : 1054.2437744140625, press_diff : 0.0, temperature : 2989}
2019-06-19 15:09:59.531165 ATTITUDE {time_boot_ms : 2441400, roll : -1.5766990184783936, pitch : -0.005859527736902237, yaw : -1.6982014179229736, rollspeed : -0.001294523011893034, pitchspeed : 0.0015067721251398325, yawspeed : -0.0010581847745925188}
2019-06-19 15:09:59.538155 SCALED_PRESSURE {time_boot_ms : 2441400, press_abs : 1023.740966796875, press_diff : 0.0, temperature : 2998}
2019-06-19 15:09:59.794322 RAW_IMU {time_usec : 2441650449, xacc : 0, yacc : 1020, zacc : 0, xgyro : 0, ygyro : 0, zgyro : 0, xmag : -57, ymag : -407, zmag : 206}
2019-06-19 15:10:00.098349 ATTITUDE {time_boot_ms : 2441900, roll : -1.5766719579696655, pitch : -0.005815061740577221, yaw : -1.698001503944397, rollspeed : -0.0010893443832173944, pitchspeed : 0.0015382312703877687, yawspeed : -0.0011337287724018097}
2019-06-19 15:10:00.100351 SYS_STATUS {onboard_control_sensors_present : 52493359, onboard_control_sensors_enabled : 35691567, onboard_control_sensors_health : 52468783, load : 0, voltage_battery : 24830, current_battery : 0, battery_remaining : 100, drop_rate_comm : 0, errors_comm : 0, errors_count1 : 0, errors_count2 : 0, errors_count3 : 0, errors_count4 : 0}
2019-06-19 15:10:00.358369 ATTITUDE {time_boot_ms : 2442150, roll : -1.5766526460647583, pitch : -0.0057875835336744785, yaw : -1.6978955268859863, rollspeed : -0.0012519244337454438, pitchspeed : 0.0015541970496997237, yawspeed : -0.0010979665676131845}
2019-06-19 15:10:00.365370 RAW_IMU {time_usec : 2442150249, xacc : 0, yacc : 1020, zacc : 0, xgyro : 0, ygyro : 0, zgyro : 0, xmag : -57, ymag : -407, zmag : 206}
2019-06-19 15:10:00.625392 ATTITUDE {time_boot_ms : 2442400, roll : -1.5766328573226929, pitch : -0.0057531315833330154, yaw : -1.6977941989898682, rollspeed : -0.0011151129147037864, pitchspeed : 0.0014676498249173164, yawspeed : -0.0011635208502411842}
2019-06-19 15:10:00.628393 SYS_STATUS {onboard_control_sensors_present : 52493359, onboard_control_sensors_enabled : 35691567, onboard_control_sensors_health : 52468783, load : 0, voltage_battery : 24830, current_battery : 0, battery_remaining : 100, drop_rate_comm : 0, errors_comm : 0, errors_count1 : 0, errors_count2 : 0, errors_count3 : 0, errors_count4 : 0}
2019-06-19 15:10:00.875436 SYS_STATUS {onboard_control_sensors_present : 52493359, onboard_control_sensors_enabled : 35691567, onboard_control_sensors_health : 52468783, load : 0, voltage_battery : 24830, current_battery : 0, battery_remaining : 100, drop_rate_comm : 0, errors_comm : 0, errors_count1 : 0, errors_count2 : 0, errors_count3 : 0, errors_count4 : 0}
2019-06-19 15:10:01.152455 SYS_STATUS {onboard_control_sensors_present : 52493359, onboard_control_sensors_enabled : 35691567, onboard_control_sensors_health : 52468783, load : 0, voltage_battery : 24830, current_battery : 0, battery_remaining : 100, drop_rate_comm : 0, errors_comm : 0, errors_count1 : 0, errors_count2 : 0, errors_count3 : 0, errors_count4 : 0}
2019-06-19 15:10:01.160455 RAW_IMU {time_usec : 2442900782, xacc : 0, yacc : 1020, zacc : 0, xgyro : 0, ygyro : 0, zgyro : 0, xmag : -57, ymag : -407, zmag : 206}
2019-06-19 15:10:01.161455 SCALED_PRESSURE {time_boot_ms : 2442900, press_abs : 1041.6580810546875, press_diff : 0.0, temperature : 2993}
2019-06-19 15:10:01.389490 ATTITUDE {time_boot_ms : 2443150, roll : -1.5767021179199219, pitch : -0.005736799910664558, yaw : -1.697474718093872, rollspeed : -0.001267407787963748, pitchspeed : 0.0014146873727440834, yawspeed : -0.0011712766718119383}
2019-06-19 15:10:01.391475 SYS_STATUS {onboard_control_sensors_present : 52493359, onboard_control_sensors_enabled : 35691567, onboard_control_sensors_health : 52468783, load : 0, voltage_battery : 24830, current_battery : 0, battery_remaining : 100, drop_rate_comm : 0, errors_comm : 0, errors_count1 : 0, errors_count2 : 0, errors_count3 : 0, errors_count4 : 0}
2019-06-19 15:10:01.397475 SCALED_PRESSURE {time_boot_ms : 2443150, press_abs : 1049.3577880859375, press_diff : 0.0, temperature : 2991}
2019-06-19 15:10:01.641772 ATTITUDE {time_boot_ms : 2443400, roll : -1.576689600944519, pitch : -0.00571754714474082, yaw : -1.6973624229431152, rollspeed : -0.001118804095312953, pitchspeed : 0.001415926730260253, yawspeed : -0.001088901306502521}
2019-06-19 15:10:01.643750 SYS_STATUS {onboard_control_sensors_present : 52493359, onboard_control_sensors_enabled : 35691567, onboard_control_sensors_health : 52468783, load : 0, voltage_battery : 24830, current_battery : 0, battery_remaining : 100, drop_rate_comm : 0, errors_comm : 0, errors_count1 : 0, errors_count2 : 0, errors_count3 : 0, errors_count4 : 0}
2019-06-19 15:10:01.651751 SCALED_PRESSURE {time_boot_ms : 2443400, press_abs : 1037.572509765625, press_diff : 0.0, temperature : 2994}
2019-06-19 15:10:01.877027 ATTITUDE {time_boot_ms : 2443650, roll : -1.5766693353652954, pitch : -0.0056762401945889, yaw : -1.6972576379776, rollspeed : -0.0011630241060629487, pitchspeed : 0.0014838345814496279, yawspeed : -0.0010470319539308548}
2019-06-19 15:10:01.879039 SYS_STATUS {onboard_control_sensors_present : 52493359, onboard_control_sensors_enabled : 35691567, onboard_control_sensors_health : 52468783, load : 0, voltage_battery : 24830, current_battery : 0, battery_remaining : 100, drop_rate_comm : 0, errors_comm : 0, errors_count1 : 0, errors_count2 : 0, errors_count3 : 0, errors_count4 : 0}
2019-06-19 15:10:01.885041 RAW_IMU {time_usec : 2443650482, xacc : 0, yacc : 1020, zacc : 0, xgyro : 0, ygyro : 0, zgyro : 0, xmag : -57, ymag : -407, zmag : 206}
2019-06-19 15:10:02.132234 ATTITUDE {time_boot_ms : 2443900, roll : -1.576636791229248, pitch : -0.005638599395751953, yaw : -1.69715416431427, rollspeed : -0.0011002387618646026, pitchspeed : 0.001385421957820654, yawspeed : -0.0010439917678013444}
2019-06-19 15:10:02.134235 SYS_STATUS {onboard_control_sensors_present : 52493359, onboard_control_sensors_enabled : 35691567, onboard_control_sensors_health : 52468783, load : 0, voltage_battery : 24830, current_battery : 0, battery_remaining : 100, drop_rate_comm : 0, errors_comm : 0, errors_count1 : 0, errors_count2 : 0, errors_count3 : 0, errors_count4 : 0}
2019-06-19 15:10:02.256245 HEARTBEAT {type : 12, autopilot : 3, base_mode : 81, custom_mode : 19, system_status : 3, mavlink_version : 3}
2019-06-19 15:10:02.366255 SYS_STATUS {onboard_control_sensors_present : 52493359, onboard_control_sensors_enabled : 35691567, onboard_control_sensors_health : 52468783, load : 0, voltage_battery : 24830, current_battery : 0, battery_remaining : 100, drop_rate_comm : 0, errors_comm : 0, errors_count1 : 0, errors_count2 : 0, errors_count3 : 0, errors_count4 : 0}
2019-06-19 15:10:02.650277 ATTITUDE {time_boot_ms : 2444400, roll : -1.5765907764434814, pitch : -0.005562423728406429, yaw : -1.6969314813613892, rollspeed : -0.0012149267131462693, pitchspeed : 0.001481480197981, yawspeed : -0.0009002942824736238}
2019-06-19 15:10:02.652280 SYS_STATUS {onboard_control_sensors_present : 52493359, onboard_control_sensors_enabled : 35691567, onboard_control_sensors_health : 52468783, load : 0, voltage_battery : 24830, current_battery : 0, battery_remaining : 100, drop_rate_comm : 0, errors_comm : 0, errors_count1 : 0, errors_count2 : 0, errors_count3 : 0, errors_count4 : 0}
2019-06-19 15:10:02.660280 RAW_IMU {time_usec : 2444400182, xacc : 0, yacc : 773, zacc : 0, xgyro : 0, ygyro : 0, zgyro : 0, xmag : -57, ymag : -407, zmag : 206}
2019-06-19 15:10:02.661279 SCALED_PRESSURE {time_boot_ms : 2444400, press_abs : 1021.5287475585938, press_diff : 0.0, temperature : 2998}
2019-06-19 15:10:02.907299 ATTITUDE {time_boot_ms : 2444650, roll : -1.5765960216522217, pitch : -0.005565284751355648, yaw : -1.6968107223510742, rollspeed : -0.0011471451725810766, pitchspeed : 0.0013575630728155375, yawspeed : -0.0010837885783985257}
2019-06-19 15:10:02.908304 SYS_STATUS {onboard_control_sensors_present : 52493359, onboard_control_sensors_enabled : 35691567, onboard_control_sensors_health : 52468783, load : 0, voltage_battery : 24830, current_battery : 0, battery_remaining : 100, drop_rate_comm : 0, errors_comm : 0, errors_count1 : 0, errors_count2 : 0, errors_count3 : 0, errors_count4 : 0}
2019-06-19 15:10:02.916300 RAW_IMU {time_usec : 2444650915, xacc : 0, yacc : 1020, zacc : 0, xgyro : 0, ygyro : 0, zgyro : 0, xmag : -57, ymag : -407, zmag : 206}
2019-06-19 15:10:02.918301 SCALED_PRESSURE {time_boot_ms : 2444650, press_abs : 1031.8192138671875, press_diff : 0.0, temperature : 2995}
2019-06-19 15:10:03.184322 ATTITUDE {time_boot_ms : 2444900, roll : -1.576611042022705, pitch : -0.005561678670346737, yaw : -1.6966983079910278, rollspeed : -0.0010740163270384073, pitchspeed : 0.0013982693199068308, yawspeed : -0.0011416979832574725}
2019-06-19 15:10:03.197325 SCALED_PRESSURE {time_boot_ms : 2444900, press_abs : 1041.3673095703125, press_diff : 0.0, temperature : 2993}
2019-06-19 15:10:03.410341 ATTITUDE {time_boot_ms : 2445150, roll : -1.5766040086746216, pitch : -0.005527643486857414, yaw : -1.6965919733047485, rollspeed : -0.0012148362584412098, pitchspeed : 0.0014268036466091871, yawspeed : -0.0010542231611907482}
2019-06-19 15:10:03.415341 RAW_IMU {time_usec : 2445150715, xacc : 0, yacc : 1020, zacc : 0, xgyro : 0, ygyro : 0, zgyro : 0, xmag : -57, ymag : -407, zmag : 206}
2019-06-19 15:10:03.655383 ATTITUDE {time_boot_ms : 2445400, roll : -1.5765888690948486, pitch : -0.0055039506405591965, yaw : -1.6964772939682007, rollspeed : -0.001142260734923184, pitchspeed : 0.0013970080763101578, yawspeed : -0.0010420468170195818}
2019-06-19 15:10:03.657384 SYS_STATUS {onboard_control_sensors_present : 52493359, onboard_control_sensors_enabled : 35691567, onboard_control_sensors_health : 52468783, load : 0, voltage_battery : 24830, current_battery : 0, battery_remaining : 100, drop_rate_comm : 0, errors_comm : 0, errors_count1 : 0, errors_count2 : 0, errors_count3 : 0, errors_count4 : 0}
2019-06-19 15:10:03.665402 SCALED_PRESSURE {time_boot_ms : 2445400, press_abs : 1025.949951171875, press_diff : 0.0, temperature : 2997}
2019-06-19 15:10:03.876403 ATTITUDE {time_boot_ms : 2445650, roll : -1.5765897035598755, pitch : -0.0054821050725877285, yaw : -1.6963691711425781, rollspeed : -0.0011574402451515198, pitchspeed : 0.0013670595362782478, yawspeed : -0.0011874774936586618}
2019-06-19 15:10:03.878402 SYS_STATUS {onboard_control_sensors_present : 52493359, onboard_control_sensors_enabled : 35691567, onboard_control_sensors_health : 52468783, load : 0, voltage_battery : 24830, current_battery : 0, battery_remaining : 100, drop_rate_comm : 0, errors_comm : 0, errors_count1 : 0, errors_count2 : 0, errors_count3 : 0, errors_count4 : 0}
2019-06-19 15:10:03.885403 RAW_IMU {time_usec : 2445650515, xacc : 0, yacc : 638, zacc : 0, xgyro : 0, ygyro : 0, zgyro : 0, xmag : -57, ymag : -407, zmag : 206}
2019-06-19 15:10:03.886421 SCALED_PRESSURE {time_boot_ms : 2445650, press_abs : 1042.7176513671875, press_diff : 0.0, temperature : 2992}
2019-06-19 15:10:04.139415 SYS_STATUS {onboard_control_sensors_present : 52493359, onboard_control_sensors_enabled : 35691567, onboard_control_sensors_health : 52468783, load : 0, voltage_battery : 24830, current_battery : 0, battery_remaining : 100, drop_rate_comm : 0, errors_comm : 0, errors_count1 : 0, errors_count2 : 0, errors_count3 : 0, errors_count4 : 0}
2019-06-19 15:10:04.145418 SCALED_PRESSURE {time_boot_ms : 2445900, press_abs : 1054.937744140625, press_diff : 0.0, temperature : 2989}
2019-06-19 15:10:04.376432 ATTITUDE {time_boot_ms : 2446150, roll : -1.5765717029571533, pitch : -0.005427893716841936, yaw : -1.6961382627487183, rollspeed : -0.0011774965096265078, pitchspeed : 0.0013802191242575645, yawspeed : -0.0010389959206804633}
2019-06-19 15:10:04.378433 SYS_STATUS {onboard_control_sensors_present : 52493359, onboard_control_sensors_enabled : 35691567, onboard_control_sensors_health : 52468783, load : 0, voltage_battery : 24830, current_battery : 0, battery_remaining : 100, drop_rate_comm : 0, errors_comm : 0, errors_count1 : 0, errors_count2 : 0, errors_count3 : 0, errors_count4 : 0}
2019-06-19 15:10:04.623840 ATTITUDE {time_boot_ms : 2446400, roll : -1.5765544176101685, pitch : -0.005406525451689959, yaw : -1.6960216760635376, rollspeed : -0.0010617680381983519, pitchspeed : 0.0014854344772174954, yawspeed : -0.000998184084892273}
2019-06-19 15:10:04.625827 SYS_STATUS {onboard_control_sensors_present : 52493359, onboard_control_sensors_enabled : 35691567, onboard_control_sensors_health : 52468783, load : 0, voltage_battery : 24830, current_battery : 0, battery_remaining : 100, drop_rate_comm : 0, errors_comm : 0, errors_count1 : 0, errors_count2 : 0, errors_count3 : 0, errors_count4 : 0}
2019-06-19 15:10:04.633831 RAW_IMU {time_usec : 2446400215, xacc : 0, yacc : 1020, zacc : 0, xgyro : 0, ygyro : 0, zgyro : 0, xmag : -57, ymag : -407, zmag : 206}
2019-06-19 15:10:04.634827 SCALED_PRESSURE {time_boot_ms : 2446400, press_abs : 1043.8243408203125, press_diff : 0.0, temperature : 2992}
2019-06-19 15:10:04.846908 ATTITUDE {time_boot_ms : 2446650, roll : -1.5765479803085327, pitch : -0.005392756313085556, yaw : -1.6959127187728882, rollspeed : -0.001191978226415813, pitchspeed : 0.001407784759066999, yawspeed : -0.0008853316539898515}
2019-06-19 15:10:04.854890 SCALED_PRESSURE {time_boot_ms : 2446650, press_abs : 1024.6260986328125, press_diff : 0.0, temperature : 2997}
2019-06-19 15:10:05.092138 SYS_STATUS {onboard_control_sensors_present : 52493359, onboard_control_sensors_enabled : 35691567, onboard_control_sensors_health : 52468783, load : 0, voltage_battery : 24830, current_battery : 0, battery_remaining : 100, drop_rate_comm : 0, errors_comm : 0, errors_count1 : 0, errors_count2 : 0, errors_count3 : 0, errors_count4 : 0}
2019-06-19 15:10:05.098126 SCALED_PRESSURE {time_boot_ms : 2446900, press_abs : 1019.8333129882812, press_diff : 0.0, temperature : 2999}
2019-06-19 15:10:05.211211 HEARTBEAT {type : 12, autopilot : 3, base_mode : 81, custom_mode : 19, system_status : 3, mavlink_version : 3}
2019-06-19 15:10:05.313217 ATTITUDE {time_boot_ms : 2447150, roll : -1.5765520334243774, pitch : -0.005310381762683392, yaw : -1.6956815719604492, rollspeed : -0.001072821207344532, pitchspeed : 0.001352506224066019, yawspeed : -0.0009954029228538275}
2019-06-19 15:10:05.314218 SYS_STATUS {onboard_control_sensors_present : 52493359, onboard_control_sensors_enabled : 35691567, onboard_control_sensors_health : 52468783, load : 0, voltage_battery : 24830, current_battery : 0, battery_remaining : 100, drop_rate_comm : 0, errors_comm : 0, errors_count1 : 0, errors_count2 : 0, errors_count3 : 0, errors_count4 : 0}
2019-06-19 15:10:05.319217 SCALED_PRESSURE {time_boot_ms : 2447150, press_abs : 1043.8529052734375, press_diff : 0.0, temperature : 2992}
2019-06-19 15:10:05.555641 ATTITUDE {time_boot_ms : 2447400, roll : -1.5765498876571655, pitch : -0.005275274161249399, yaw : -1.6955583095550537, rollspeed : -0.0011040577664971352, pitchspeed : 0.001425769180059433, yawspeed : -0.0009759980603121221}
2019-06-19 15:10:05.786723 SYS_STATUS {onboard_control_sensors_present : 52493359, onboard_control_sensors_enabled : 35691567, onboard_control_sensors_health : 52468783, load : 0, voltage_battery : 24830, current_battery : 0, battery_remaining : 100, drop_rate_comm : 0, errors_comm : 0, errors_count1 : 0, errors_count2 : 0, errors_count3 : 0, errors_count4 : 0}
2019-06-19 15:10:06.036998 ATTITUDE {time_boot_ms : 2447900, roll : -1.576537013053894, pitch : -0.00524788536131382, yaw : -1.6953080892562866, rollspeed : -0.0011427002027630806, pitchspeed : 0.001509406603872776, yawspeed : -0.0010049891425296664}
2019-06-19 15:10:06.042989 RAW_IMU {time_usec : 2447900448, xacc : 0, yacc : 1020, zacc : 0, xgyro : 0, ygyro : 0, zgyro : 0, xmag : -57, ymag : -407, zmag : 206}
2019-06-19 15:10:06.164003 HEARTBEAT {type : 12, autopilot : 3, base_mode : 81, custom_mode : 19, system_status : 3, mavlink_version : 3}
2019-06-19 15:10:06.271017 ATTITUDE {time_boot_ms : 2448150, roll : -1.5765360593795776, pitch : -0.005223506595939398, yaw : -1.6951793432235718, rollspeed : -0.0011178581044077873, pitchspeed : 0.0014794716844335198, yawspeed : -0.00102733273524791}
2019-06-19 15:10:06.272008 SYS_STATUS {onboard_control_sensors_present : 52493359, onboard_control_sensors_enabled : 35691567, onboard_control_sensors_health : 52468783, load : 0, voltage_battery : 24830, current_battery : 0, battery_remaining : 100, drop_rate_comm : 0, errors_comm : 0, errors_count1 : 0, errors_count2 : 0, errors_count3 : 0, errors_count4 : 0}
2019-06-19 15:10:06.278008 SCALED_PRESSURE {time_boot_ms : 2448150, press_abs : 1030.9608154296875, press_diff : 0.0, temperature : 2996}
2019-06-19 15:10:06.530503 SYS_STATUS {onboard_control_sensors_present : 52493359, onboard_control_sensors_enabled : 35691567, onboard_control_sensors_health : 52468783, load : 0, voltage_battery : 24830, current_battery : 0, battery_remaining : 100, drop_rate_comm : 0, errors_comm : 0, errors_count1 : 0, errors_count2 : 0, errors_count3 : 0, errors_count4 : 0}
2019-06-19 15:10:06.757658 ATTITUDE {time_boot_ms : 2448650, roll : -1.5765455961227417, pitch : -0.005169205833226442, yaw : -1.6949418783187866, rollspeed : -0.0011168996570631862, pitchspeed : 0.0013288833433762193, yawspeed : -0.0009367929305881262}
2019-06-19 15:10:06.764658 RAW_IMU {time_usec : 2448650148, xacc : 0, yacc : 1029, zacc : 0, xgyro : 0, ygyro : 0, zgyro : 0, xmag : -57, ymag : -407, zmag : 206}
2019-06-19 15:10:07.028750 RAW_IMU {time_usec : 2448900881, xacc : 0, yacc : 1020, zacc : 0, xgyro : 0, ygyro : 0, zgyro : 0, xmag : -57, ymag : -407, zmag : 206}
2019-06-19 15:10:07.029750 SCALED_PRESSURE {time_boot_ms : 2448900, press_abs : 1027.468994140625, press_diff : 0.0, temperature : 2997}
2019-06-19 15:10:07.154803 HEARTBEAT {type : 12, autopilot : 3, base_mode : 81, custom_mode : 19, system_status : 3, mavlink_version : 3}
2019-06-19 15:10:07.263187 SYS_STATUS {onboard_control_sensors_present : 52493359, onboard_control_sensors_enabled : 35691567, onboard_control_sensors_health : 52468783, load : 0, voltage_battery : 24830, current_battery : 0, battery_remaining : 100, drop_rate_comm : 0, errors_comm : 0, errors_count1 : 0, errors_count2 : 0, errors_count3 : 0, errors_count4 : 0}
2019-06-19 15:10:07.268175 RAW_IMU {time_usec : 2449150781, xacc : 0, yacc : 1020, zacc : 0, xgyro : 0, ygyro : 0, zgyro : 0, xmag : -57, ymag : -407, zmag : 206}
2019-06-19 15:10:07.269179 SCALED_PRESSURE {time_boot_ms : 2449150, press_abs : 1044.7288818359375, press_diff : 0.0, temperature : 2992}
2019-06-19 15:10:07.523552 SCALED_PRESSURE {time_boot_ms : 2449400, press_abs : 1037.0496826171875, press_diff : 0.0, temperature : 2994}
2019-06-19 15:10:07.763811 ATTITUDE {time_boot_ms : 2449650, roll : -1.5764961242675781, pitch : -0.005066684912890196, yaw : -1.6944338083267212, rollspeed : -0.0011445123236626387, pitchspeed : 0.0013056151801720262, yawspeed : -0.0010657018283382058}
2019-06-19 15:10:07.772809 RAW_IMU {time_usec : 2449650581, xacc : 0, yacc : 1020, zacc : 0, xgyro : 0, ygyro : 0, zgyro : 0, xmag : -57, ymag : -407, zmag : 206}
2019-06-19 15:10:07.773809 SCALED_PRESSURE {time_boot_ms : 2449650, press_abs : 1048.6829833984375, press_diff : 0.0, temperature : 2991}
2019-06-19 15:10:08.020830 ATTITUDE {time_boot_ms : 2449900, roll : -1.5764912366867065, pitch : -0.0050596510991454124, yaw : -1.6943016052246094, rollspeed : -0.0011935222428292036, pitchspeed : 0.001425448339432478, yawspeed : -0.0009365304140374064}
2019-06-19 15:10:08.022831 SYS_STATUS {onboard_control_sensors_present : 52493359, onboard_control_sensors_enabled : 35691567, onboard_control_sensors_health : 52468783, load : 0, voltage_battery : 24830, current_battery : 0, battery_remaining : 100, drop_rate_comm : 0, errors_comm : 0, errors_count1 : 0, errors_count2 : 0, errors_count3 : 0, errors_count4 : 0}
2019-06-19 15:10:08.029830 RAW_IMU {time_usec : 2449900481, xacc : 0, yacc : 1020, zacc : 0, xgyro : 0, ygyro : 0, zgyro : 0, xmag : -57, ymag : -407, zmag : 206}
2019-06-19 15:10:08.254656 SYS_STATUS {onboard_control_sensors_present : 52493359, onboard_control_sensors_enabled : 35691567, onboard_control_sensors_health : 52468783, load : 0, voltage_battery : 24830, current_battery : 0, battery_remaining : 100, drop_rate_comm : 0, errors_comm : 0, errors_count1 : 0, errors_count2 : 0, errors_count3 : 0, errors_count4 : 0}
2019-06-19 15:10:08.523160 RAW_IMU {time_usec : 2450400281, xacc : 0, yacc : 1020, zacc : 0, xgyro : 0, ygyro : 0, zgyro : 0, xmag : -57, ymag : -407, zmag : 206}
2019-06-19 15:10:08.767885 SYS_STATUS {onboard_control_sensors_present : 52493359, onboard_control_sensors_enabled : 35691567, onboard_control_sensors_health : 52468783, load : 0, voltage_battery : 24830, current_battery : 0, battery_remaining : 100, drop_rate_comm : 0, errors_comm : 0, errors_count1 : 0, errors_count2 : 0, errors_count3 : 0, errors_count4 : 0}
2019-06-19 15:10:08.773886 RAW_IMU {time_usec : 2450650181, xacc : 0, yacc : 1020, zacc : 0, xgyro : 0, ygyro : 0, zgyro : 0, xmag : -57, ymag : -407, zmag : 206}
2019-06-19 15:10:08.774885 SCALED_PRESSURE {time_boot_ms : 2450650, press_abs : 1037.1148681640625, press_diff : 0.0, temperature : 2994}
2019-06-19 15:10:09.032105 ATTITUDE {time_boot_ms : 2450900, roll : -1.5764774084091187, pitch : -0.004951318260282278, yaw : -1.69377863407135, rollspeed : -0.0010614532511681318, pitchspeed : 0.0011728060198947787, yawspeed : -0.000900992308743298}
2019-06-19 15:10:09.033106 SYS_STATUS {onboard_control_sensors_present : 52493359, onboard_control_sensors_enabled : 35691567, onboard_control_sensors_health : 52468783, load : 0, voltage_battery : 24830, current_battery : 0, battery_remaining : 100, drop_rate_comm : 0, errors_comm : 0, errors_count1 : 0, errors_count2 : 0, errors_count3 : 0, errors_count4 : 0}
2019-06-19 15:10:09.040110 SCALED_PRESSURE {time_boot_ms : 2450900, press_abs : 1055.334716796875, press_diff : 0.0, temperature : 2989}
2019-06-19 15:10:09.165289 HEARTBEAT {type : 12, autopilot : 3, base_mode : 81, custom_mode : 19, system_status : 3, mavlink_version : 3}
2019-06-19 15:10:09.271480 ATTITUDE {time_boot_ms : 2451150, roll : -1.5764659643173218, pitch : -0.004926582332700491, yaw : -1.693639874458313, rollspeed : -0.0010036984458565712, pitchspeed : 0.0013820090098306537, yawspeed : -0.0009267508867196739}
2019-06-19 15:10:09.278476 SCALED_PRESSURE {time_boot_ms : 2451150, press_abs : 1020.014404296875, press_diff : 0.0, temperature : 2999}
2019-06-19 15:10:09.541005 ATTITUDE {time_boot_ms : 2451400, roll : -1.5764528512954712, pitch : -0.004904170520603657, yaw : -1.69350266456604, rollspeed : -0.0011029010638594627, pitchspeed : 0.0014134123921394348, yawspeed : -0.0009542681509628892}
2019-06-19 15:10:10.050499 ATTITUDE {time_boot_ms : 2451900, roll : -1.5764524936676025, pitch : -0.004887004382908344, yaw : -1.6932340860366821, rollspeed : -0.0008616974228061736, pitchspeed : 0.0013334681279957294, yawspeed : -0.0008701649494469166}
2019-06-19 15:10:10.052499 SYS_STATUS {onboard_control_sensors_present : 52493359, onboard_control_sensors_enabled : 35691567, onboard_control_sensors_health : 52468783, load : 0, voltage_battery : 24830, current_battery : 0, battery_remaining : 100, drop_rate_comm : 0, errors_comm : 0, errors_count1 : 0, errors_count2 : 0, errors_count3 : 0, errors_count4 : 0}
2019-06-19 15:10:10.187798 HEARTBEAT {type : 12, autopilot : 3, base_mode : 81, custom_mode : 19, system_status : 3, mavlink_version : 3}
2019-06-19 15:10:10.299896 SYS_STATUS {onboard_control_sensors_present : 52493359, onboard_control_sensors_enabled : 35691567, onboard_control_sensors_health : 52468783, load : 0, voltage_battery : 24830, current_battery : 0, battery_remaining : 100, drop_rate_comm : 0, errors_comm : 0, errors_count1 : 0, errors_count2 : 0, errors_count3 : 0, errors_count4 : 0}
2019-06-19 15:10:10.570280 SYS_STATUS {onboard_control_sensors_present : 52493359, onboard_control_sensors_enabled : 35691567, onboard_control_sensors_health : 52468783, load : 0, voltage_battery : 24830, current_battery : 0, battery_remaining : 100, drop_rate_comm : 0, errors_comm : 0, errors_count1 : 0, errors_count2 : 0, errors_count3 : 0, errors_count4 : 0}
2019-06-19 15:10:10.822542 RAW_IMU {time_usec : 2452650214, xacc : 0, yacc : 1035, zacc : 0, xgyro : 0, ygyro : 0, zgyro : 0, xmag : -57, ymag : -407, zmag : 206}
2019-06-19 15:10:10.822542 SCALED_PRESSURE {time_boot_ms : 2452650, press_abs : 1053.873046875, press_diff : 0.0, temperature : 2989}
2019-06-19 15:10:11.093816 RAW_IMU {time_usec : 2452900947, xacc : 0, yacc : 1020, zacc : 0, xgyro : 0, ygyro : 0, zgyro : 0, xmag : -57, ymag : -407, zmag : 206}
2019-06-19 15:10:11.221041 HEARTBEAT {type : 12, autopilot : 3, base_mode : 81, custom_mode : 19, system_status : 3, mavlink_version : 3}
2019-06-19 15:10:11.358556 RAW_IMU {time_usec : 2453150847, xacc : 0, yacc : 1020, zacc : 0, xgyro : 0, ygyro : 0, zgyro : 0, xmag : -57, ymag : -407, zmag : 206}
2019-06-19 15:10:11.591430 SYS_STATUS {onboard_control_sensors_present : 52493359, onboard_control_sensors_enabled : 35691567, onboard_control_sensors_health : 52468783, load : 0, voltage_battery : 24830, current_battery : 0, battery_remaining : 100, drop_rate_comm : 0, errors_comm : 0, errors_count1 : 0, errors_count2 : 0, errors_count3 : 0, errors_count4 : 0}
2019-06-19 15:10:11.597429 SCALED_PRESSURE {time_boot_ms : 2453400, press_abs : 1020.4506225585938, press_diff : 0.0, temperature : 2999}
2019-06-19 15:10:11.854497 SYS_STATUS {onboard_control_sensors_present : 52493359, onboard_control_sensors_enabled : 35691567, onboard_control_sensors_health : 52468783, load : 0, voltage_battery : 24830, current_battery : 0, battery_remaining : 100, drop_rate_comm : 0, errors_comm : 0, errors_count1 : 0, errors_count2 : 0, errors_count3 : 0, errors_count4 : 0}
2019-06-19 15:10:11.862498 RAW_IMU {time_usec : 2453650647, xacc : 0, yacc : 1020, zacc : 0, xgyro : 0, ygyro : 0, zgyro : 0, xmag : -57, ymag : -407, zmag : 206}
2019-06-19 15:10:11.863498 SCALED_PRESSURE {time_boot_ms : 2453650, press_abs : 1041.3350830078125, press_diff : 0.0, temperature : 2993}
2019-06-19 15:10:12.098516 SCALED_PRESSURE {time_boot_ms : 2453900, press_abs : 1042.7054443359375, press_diff : 0.0, temperature : 2992}
2019-06-19 15:10:12.226526 HEARTBEAT {type : 12, autopilot : 3, base_mode : 81, custom_mode : 19, system_status : 3, mavlink_version : 3}
2019-06-19 15:10:12.354968 ATTITUDE {time_boot_ms : 2454150, roll : -1.576364517211914, pitch : -0.0046856277622282505, yaw : -1.6920340061187744, rollspeed : -0.0010377755388617516, pitchspeed : 0.0011837957426905632, yawspeed : -0.000969758490100503}
2019-06-19 15:10:12.355969 SYS_STATUS {onboard_control_sensors_present : 52493359, onboard_control_sensors_enabled : 35691567, onboard_control_sensors_health : 52468783, load : 0, voltage_battery : 24830, current_battery : 0, battery_remaining : 100, drop_rate_comm : 0, errors_comm : 0, errors_count1 : 0, errors_count2 : 0, errors_count3 : 0, errors_count4 : 0}
2019-06-19 15:10:12.360969 RAW_IMU {time_usec : 2454150447, xacc : 0, yacc : 1020, zacc : 0, xgyro : 0, ygyro : 0, zgyro : 0, xmag : -57, ymag : -407, zmag : 206}
2019-06-19 15:10:12.361969 SCALED_PRESSURE {time_boot_ms : 2454150, press_abs : 1050.2501220703125, press_diff : 0.0, temperature : 2990}
2019-06-19 15:10:12.591608 ATTITUDE {time_boot_ms : 2454400, roll : -1.5763603448867798, pitch : -0.004650341346859932, yaw : -1.6919020414352417, rollspeed : -0.0010562546085566282, pitchspeed : 0.0011851866729557514, yawspeed : -0.000873719051014632}
2019-06-19 15:10:12.862024 RAW_IMU {time_usec : 2454650247, xacc : 0, yacc : 1020, zacc : 0, xgyro : 0, ygyro : 0, zgyro : 0, xmag : -57, ymag : -407, zmag : 206}
2019-06-19 15:10:13.220522 HEARTBEAT {type : 12, autopilot : 3, base_mode : 81, custom_mode : 19, system_status : 3, mavlink_version : 3}
2019-06-19 15:10:13.347819 ATTITUDE {time_boot_ms : 2455150, roll : -1.5764411687850952, pitch : -0.0045956834219396114, yaw : -1.6914633512496948, rollspeed : -0.000771943130530417, pitchspeed : 0.0011298446916043758, yawspeed : -0.0009564808569848537}
2019-06-19 15:10:13.348807 SYS_STATUS {onboard_control_sensors_present : 52493359, onboard_control_sensors_enabled : 35691567, onboard_control_sensors_health : 52468783, load : 0, voltage_battery : 24830, current_battery : 0, battery_remaining : 100, drop_rate_comm : 0, errors_comm : 0, errors_count1 : 0, errors_count2 : 0, errors_count3 : 0, errors_count4 : 0}
2019-06-19 15:10:13.353807 SCALED_PRESSURE {time_boot_ms : 2455150, press_abs : 1042.358154296875, press_diff : 0.0, temperature : 2992}
2019-06-19 15:10:13.581140 ATTITUDE {time_boot_ms : 2455400, roll : -1.576391577720642, pitch : -0.004575745202600956, yaw : -1.6913255453109741, rollspeed : -0.0009728995501063764, pitchspeed : 0.0011358145857229829, yawspeed : -0.0007784850313328207}
2019-06-19 15:10:13.587141 RAW_IMU {time_usec : 2455400780, xacc : 0, yacc : 1020, zacc : 0, xgyro : 0, ygyro : 0, zgyro : 0, xmag : -57, ymag : -407, zmag : 206}
2019-06-19 15:10:13.588141 SCALED_PRESSURE {time_boot_ms : 2455400, press_abs : 1040.57763671875, press_diff : 0.0, temperature : 2993}
2019-06-19 15:10:14.076921 SYS_STATUS {onboard_control_sensors_present : 52493359, onboard_control_sensors_enabled : 35691567, onboard_control_sensors_health : 52468783, load : 0, voltage_battery : 24830, current_battery : 0, battery_remaining : 100, drop_rate_comm : 0, errors_comm : 0, errors_count1 : 0, errors_count2 : 0, errors_count3 : 0, errors_count4 : 0}
2019-06-19 15:10:14.084924 SCALED_PRESSURE {time_boot_ms : 2455900, press_abs : 1028.89697265625, press_diff : 0.0, temperature : 2996}
2019-06-19 15:10:14.576685 ATTITUDE {time_boot_ms : 2456400, roll : -1.5762540102005005, pitch : -0.004499242175370455, yaw : -1.6907281875610352, rollspeed : -0.0008877657819539309, pitchspeed : 0.0012473581591621041, yawspeed : -0.0007755016558803618}
2019-06-19 15:10:14.578689 SYS_STATUS {onboard_control_sensors_present : 52493359, onboard_control_sensors_enabled : 35691567, onboard_control_sensors_health : 52468783, load : 0, voltage_battery : 24830, current_battery : 0, battery_remaining : 100, drop_rate_comm : 0, errors_comm : 0, errors_count1 : 0, errors_count2 : 0, errors_count3 : 0, errors_count4 : 0}
2019-06-19 15:10:14.582686 RAW_IMU {time_usec : 2456400380, xacc : 0, yacc : 1020, zacc : 0, xgyro : 0, ygyro : 0, zgyro : 0, xmag : -57, ymag : -407, zmag : 206}
2019-06-19 15:10:14.843459 ATTITUDE {time_boot_ms : 2456650, roll : -1.57624089717865, pitch : -0.00448937714099884, yaw : -1.6905832290649414, rollspeed : -0.0010076557518914342, pitchspeed : 0.0012122475309297442, yawspeed : -0.0009154621511697769}
2019-06-19 15:10:14.850461 SCALED_PRESSURE {time_boot_ms : 2456650, press_abs : 1020.750732421875, press_diff : 0.0, temperature : 2998}
2019-06-19 15:10:15.078690 SYS_STATUS {onboard_control_sensors_present : 52493359, onboard_control_sensors_enabled : 35691567, onboard_control_sensors_health : 52468783, load : 0, voltage_battery : 24830, current_battery : 0, battery_remaining : 100, drop_rate_comm : 0, errors_comm : 0, errors_count1 : 0, errors_count2 : 0, errors_count3 : 0, errors_count4 : 0}
2019-06-19 15:10:15.084690 SCALED_PRESSURE {time_boot_ms : 2456900, press_abs : 1053.3248291015625, press_diff : 0.0, temperature : 2989}
2019-06-19 15:10:15.210921 HEARTBEAT {type : 12, autopilot : 3, base_mode : 81, custom_mode : 19, system_status : 3, mavlink_version : 3}
2019-06-19 15:10:15.343091 SYS_STATUS {onboard_control_sensors_present : 52493359, onboard_control_sensors_enabled : 35691567, onboard_control_sensors_health : 52468783, load : 0, voltage_battery : 24830, current_battery : 0, battery_remaining : 100, drop_rate_comm : 0, errors_comm : 0, errors_count1 : 0, errors_count2 : 0, errors_count3 : 0, errors_count4 : 0}
2019-06-19 15:10:15.349090 RAW_IMU {time_usec : 2457150913, xacc : 0, yacc : 1020, zacc : 0, xgyro : 0, ygyro : 0, zgyro : 0, xmag : -57, ymag : -407, zmag : 206}
2019-06-19 15:10:15.350090 SCALED_PRESSURE {time_boot_ms : 2457150, press_abs : 1032.72314453125, press_diff : 0.0, temperature : 2995}
2019-06-19 15:10:15.581849 ATTITUDE {time_boot_ms : 2457400, roll : -1.5762139558792114, pitch : -0.004422202240675688, yaw : -1.6901421546936035, rollspeed : -0.0010435946751385927, pitchspeed : 0.0011853748001158237, yawspeed : -0.0007372688851319253}
2019-06-19 15:10:15.583849 SYS_STATUS {onboard_control_sensors_present : 52493359, onboard_control_sensors_enabled : 35691567, onboard_control_sensors_health : 52468783, load : 0, voltage_battery : 24830, current_battery : 0, battery_remaining : 100, drop_rate_comm : 0, errors_comm : 0, errors_count1 : 0, errors_count2 : 0, errors_count3 : 0, errors_count4 : 0}
2019-06-19 15:10:15.845354 ATTITUDE {time_boot_ms : 2457650, roll : -1.5761542320251465, pitch : -0.0044083441607654095, yaw : -1.6900042295455933, rollspeed : -0.0010658169630914927, pitchspeed : 0.0012465212494134903, yawspeed : -0.0008238735608756542}
2019-06-19 15:10:15.847355 SYS_STATUS {onboard_control_sensors_present : 52493359, onboard_control_sensors_enabled : 35691567, onboard_control_sensors_health : 52468783, load : 0, voltage_battery : 24830, current_battery : 0, battery_remaining : 100, drop_rate_comm : 0, errors_comm : 0, errors_count1 : 0, errors_count2 : 0, errors_count3 : 0, errors_count4 : 0}
2019-06-19 15:10:15.852343 RAW_IMU {time_usec : 2457650713, xacc : 0, yacc : 1020, zacc : 0, xgyro : 0, ygyro : 0, zgyro : 0, xmag : -57, ymag : -407, zmag : 206}
2019-06-19 15:10:16.096437 ATTITUDE {time_boot_ms : 2457900, roll : -1.5761061906814575, pitch : -0.004392608068883419, yaw : -1.6898558139801025, rollspeed : -0.0009068977669812739, pitchspeed : 0.0012000983115285635, yawspeed : -0.0008726851083338261}
2019-06-19 15:10:16.098438 SYS_STATUS {onboard_control_sensors_present : 52493359, onboard_control_sensors_enabled : 35691567, onboard_control_sensors_health : 52468783, load : 0, voltage_battery : 24830, current_battery : 0, battery_remaining : 100, drop_rate_comm : 0, errors_comm : 0, errors_count1 : 0, errors_count2 : 0, errors_count3 : 0, errors_count4 : 0}
2019-06-19 15:10:16.110438 SCALED_PRESSURE {time_boot_ms : 2457900, press_abs : 1031.2203369140625, press_diff : 0.0, temperature : 2996}
2019-06-19 15:10:16.368475 ATTITUDE {time_boot_ms : 2458150, roll : -1.576080560684204, pitch : -0.004359080456197262, yaw : -1.6897050142288208, rollspeed : -0.0007679187692701817, pitchspeed : 0.0010687417816370726, yawspeed : -0.0006482813041657209}
2019-06-19 15:10:16.370476 SYS_STATUS {onboard_control_sensors_present : 52493359, onboard_control_sensors_enabled : 35691567, onboard_control_sensors_health : 52468783, load : 0, voltage_battery : 24830, current_battery : 0, battery_remaining : 100, drop_rate_comm : 0, errors_comm : 0, errors_count1 : 0, errors_count2 : 0, errors_count3 : 0, errors_count4 : 0}
2019-06-19 15:10:16.375477 RAW_IMU {time_usec : 2458150513, xacc : 0, yacc : 1019, zacc : 0, xgyro : 1, ygyro : 0, zgyro : 0, xmag : -57, ymag : -407, zmag : 206}
2019-06-19 15:10:16.611674 SYS_STATUS {onboard_control_sensors_present : 52493359, onboard_control_sensors_enabled : 35691567, onboard_control_sensors_health : 52468783, load : 0, voltage_battery : 24830, current_battery : 0, battery_remaining : 100, drop_rate_comm : 0, errors_comm : 0, errors_count1 : 0, errors_count2 : 0, errors_count3 : 0, errors_count4 : 0}
2019-06-19 15:10:16.619684 SCALED_PRESSURE {time_boot_ms : 2458400, press_abs : 1040.0596923828125, press_diff : 0.0, temperature : 2993}
2019-06-19 15:10:16.890493 ATTITUDE {time_boot_ms : 2458650, roll : -1.576003909111023, pitch : -0.004335953388363123, yaw : -1.689414381980896, rollspeed : -0.0010022101923823357, pitchspeed : 0.001208185451105237, yawspeed : -0.000692176865413785}
2019-06-19 15:10:16.893493 SYS_STATUS {onboard_control_sensors_present : 52493359, onboard_control_sensors_enabled : 35691567, onboard_control_sensors_health : 52468783, load : 0, voltage_battery : 24830, current_battery : 0, battery_remaining : 100, drop_rate_comm : 0, errors_comm : 0, errors_count1 : 0, errors_count2 : 0, errors_count3 : 0, errors_count4 : 0}
2019-06-19 15:10:17.277523 HEARTBEAT {type : 12, autopilot : 3, base_mode : 81, custom_mode : 19, system_status : 3, mavlink_version : 3}
2019-06-19 15:10:17.411605 SYS_STATUS {onboard_control_sensors_present : 52493359, onboard_control_sensors_enabled : 35691567, onboard_control_sensors_health : 52468783, load : 0, voltage_battery : 24830, current_battery : 0, battery_remaining : 100, drop_rate_comm : 0, errors_comm : 0, errors_count1 : 0, errors_count2 : 0, errors_count3 : 0, errors_count4 : 0}
2019-06-19 15:10:17.651037 SCALED_PRESSURE {time_boot_ms : 2459400, press_abs : 1027.4619140625, press_diff : 0.0, temperature : 2997}
2019-06-19 15:10:17.923164 ATTITUDE {time_boot_ms : 2459650, roll : -1.5761369466781616, pitch : -0.004215163644403219, yaw : -1.6888116598129272, rollspeed : -0.0007283665472641587, pitchspeed : 0.0011431521270424128, yawspeed : -0.0007685911259613931}
2019-06-19 15:10:18.168409 ATTITUDE {time_boot_ms : 2459900, roll : -1.5761592388153076, pitch : -0.004213852342218161, yaw : -1.688654899597168, rollspeed : -0.0008468088926747441, pitchspeed : 0.001197348115965724, yawspeed : -0.0008481110562570393}
2019-06-19 15:10:18.169409 SYS_STATUS {onboard_control_sensors_present : 52493359, onboard_control_sensors_enabled : 35691567, onboard_control_sensors_health : 52468783, load : 0, voltage_battery : 24830, current_battery : 0, battery_remaining : 100, drop_rate_comm : 0, errors_comm : 0, errors_count1 : 0, errors_count2 : 0, errors_count3 : 0, errors_count4 : 0}
2019-06-19 15:10:18.177410 SCALED_PRESSURE {time_boot_ms : 2459900, press_abs : 1047.1373291015625, press_diff : 0.0, temperature : 2991}
2019-06-19 15:10:18.429780 SYS_STATUS {onboard_control_sensors_present : 52493359, onboard_control_sensors_enabled : 35691567, onboard_control_sensors_health : 52468783, load : 0, voltage_battery : 24830, current_battery : 0, battery_remaining : 100, drop_rate_comm : 0, errors_comm : 0, errors_count1 : 0, errors_count2 : 0, errors_count3 : 0, errors_count4 : 0}
2019-06-19 15:10:18.434780 RAW_IMU {time_usec : 2460150546, xacc : 0, yacc : 1020, zacc : 0, xgyro : 0, ygyro : 0, zgyro : 0, xmag : -57, ymag : -407, zmag : 206}
2019-06-19 15:10:18.435791 SCALED_PRESSURE {time_boot_ms : 2460150, press_abs : 1025.872314453125, press_diff : 0.0, temperature : 2997}
2019-06-19 15:10:18.669139 ATTITUDE {time_boot_ms : 2460400, roll : -1.5760632753372192, pitch : -0.00417445320636034, yaw : -1.6883528232574463, rollspeed : -0.0009504718473181129, pitchspeed : 0.0012141370680183172, yawspeed : -0.0007197275990620255}
2019-06-19 15:10:18.674137 RAW_IMU {time_usec : 2460400446, xacc : 0, yacc : 1020, zacc : 0, xgyro : 0, ygyro : 0, zgyro : 0, xmag : -57, ymag : -407, zmag : 206}
2019-06-19 15:10:19.149781 SYS_STATUS {onboard_control_sensors_present : 52493359, onboard_control_sensors_enabled : 35691567, onboard_control_sensors_health : 52468783, load : 0, voltage_battery : 24830, current_battery : 0, battery_remaining : 100, drop_rate_comm : 0, errors_comm : 0, errors_count1 : 0, errors_count2 : 0, errors_count3 : 0, errors_count4 : 0}
2019-06-19 15:10:19.156785 RAW_IMU {time_usec : 2460900246, xacc : 0, yacc : 1020, zacc : 0, xgyro : 0, ygyro : 0, zgyro : 0, xmag : -57, ymag : -407, zmag : 206}
2019-06-19 15:10:19.156785 SCALED_PRESSURE {time_boot_ms : 2460900, press_abs : 1019.4461669921875, press_diff : 0.0, temperature : 2999}
2019-06-19 15:10:19.280791 HEARTBEAT {type : 12, autopilot : 3, base_mode : 81, custom_mode : 19, system_status : 3, mavlink_version : 3}
2019-06-19 15:10:19.411802 SYS_STATUS {onboard_control_sensors_present : 52493359, onboard_control_sensors_enabled : 35691567, onboard_control_sensors_health : 52468783, load : 0, voltage_battery : 24830, current_battery : 0, battery_remaining : 100, drop_rate_comm : 0, errors_comm : 0, errors_count1 : 0, errors_count2 : 0, errors_count3 : 0, errors_count4 : 0}
2019-06-19 15:10:19.417803 RAW_IMU {time_usec : 2461150146, xacc : 0, yacc : 1020, zacc : 0, xgyro : 0, ygyro : 0, zgyro : 0, xmag : -57, ymag : -407, zmag : 206}
2019-06-19 15:10:19.418802 SCALED_PRESSURE {time_boot_ms : 2461150, press_abs : 1053.4488525390625, press_diff : 0.0, temperature : 2989}
2019-06-19 15:10:19.637221 ATTITUDE {time_boot_ms : 2461400, roll : -1.5760999917984009, pitch : -0.004058372229337692, yaw : -1.6877108812332153, rollspeed : -0.0009016615222208202, pitchspeed : 0.0010652143973857164, yawspeed : -0.0009003615705296397}
2019-06-19 15:10:19.643209 RAW_IMU {time_usec : 2461400879, xacc : 0, yacc : 1020, zacc : 0, xgyro : 0, ygyro : 0, zgyro : 0, xmag : -57, ymag : -407, zmag : 206}
2019-06-19 15:10:19.644210 SCALED_PRESSURE {time_boot_ms : 2461400, press_abs : 1056.699951171875, press_diff : 0.0, temperature : 2989}
2019-06-19 15:10:19.886798 SYS_STATUS {onboard_control_sensors_present : 52493359, onboard_control_sensors_enabled : 35691567, onboard_control_sensors_health : 52468783, load : 0, voltage_battery : 24830, current_battery : 0, battery_remaining : 100, drop_rate_comm : 0, errors_comm : 0, errors_count1 : 0, errors_count2 : 0, errors_count3 : 0, errors_count4 : 0}
2019-06-19 15:10:19.890799 RAW_IMU {time_usec : 2461650779, xacc : 0, yacc : 1020, zacc : 0, xgyro : 1, ygyro : 0, zgyro : 0, xmag : -57, ymag : -407, zmag : 206}
2019-06-19 15:10:20.110037 ATTITUDE {time_boot_ms : 2461900, roll : -1.5759001970291138, pitch : -0.00404159352183342, yaw : -1.6874054670333862, rollspeed : -0.0008248914964497089, pitchspeed : 0.001195205608382821, yawspeed : -0.0008047064766287804}
2019-06-19 15:10:20.112027 SYS_STATUS {onboard_control_sensors_present : 52493359, onboard_control_sensors_enabled : 35691567, onboard_control_sensors_health : 52468783, load : 0, voltage_battery : 24830, current_battery : 0, battery_remaining : 100, drop_rate_comm : 0, errors_comm : 0, errors_count1 : 0, errors_count2 : 0, errors_count3 : 0, errors_count4 : 0}
2019-06-19 15:10:20.116035 RAW_IMU {time_usec : 2461900679, xacc : 0, yacc : 1020, zacc : 0, xgyro : 0, ygyro : 0, zgyro : 0, xmag : -57, ymag : -407, zmag : 206}
2019-06-19 15:10:20.117023 SCALED_PRESSURE {time_boot_ms : 2461900, press_abs : 1055.564697265625, press_diff : 0.0, temperature : 2989}
2019-06-19 15:10:20.239067 HEARTBEAT {type : 12, autopilot : 3, base_mode : 81, custom_mode : 19, system_status : 3, mavlink_version : 3}
2019-06-19 15:10:20.365355 ATTITUDE {time_boot_ms : 2462150, roll : -1.5758261680603027, pitch : -0.004022728186100721, yaw : -1.687243103981018, rollspeed : -0.0009113943669945002, pitchspeed : 0.0009650394786149263, yawspeed : -0.000791212311014533}
2019-06-19 15:10:20.603522 SCALED_PRESSURE {time_boot_ms : 2462400, press_abs : 1046.5184326171875, press_diff : 0.0, temperature : 2991}
2019-06-19 15:10:20.862014 SYS_STATUS {onboard_control_sensors_present : 52493359, onboard_control_sensors_enabled : 35691567, onboard_control_sensors_health : 52468783, load : 0, voltage_battery : 24830, current_battery : 0, battery_remaining : 100, drop_rate_comm : 0, errors_comm : 0, errors_count1 : 0, errors_count2 : 0, errors_count3 : 0, errors_count4 : 0}
2019-06-19 15:10:21.104643 SYS_STATUS {onboard_control_sensors_present : 52493359, onboard_control_sensors_enabled : 35691567, onboard_control_sensors_health : 52468783, load : 0, voltage_battery : 24830, current_battery : 0, battery_remaining : 100, drop_rate_comm : 0, errors_comm : 0, errors_count1 : 0, errors_count2 : 0, errors_count3 : 0, errors_count4 : 0}
2019-06-19 15:10:21.233769 HEARTBEAT {type : 12, autopilot : 3, base_mode : 81, custom_mode : 19, system_status : 3, mavlink_version : 3}
2019-06-19 15:10:21.600291 ATTITUDE {time_boot_ms : 2463400, roll : -1.5759435892105103, pitch : -0.003905485151335597, yaw : -1.6864420175552368, rollspeed : -0.0007932761800475419, pitchspeed : 0.0008797449991106987, yawspeed : -0.0007420051260851324}
2019-06-19 15:10:21.602275 SYS_STATUS {onboard_control_sensors_present : 52493359, onboard_control_sensors_enabled : 35691567, onboard_control_sensors_health : 52468783, load : 0, voltage_battery : 24830, current_battery : 0, battery_remaining : 100, drop_rate_comm : 0, errors_comm : 0, errors_count1 : 0, errors_count2 : 0, errors_count3 : 0, errors_count4 : 0}
2019-06-19 15:10:21.608275 SCALED_PRESSURE {time_boot_ms : 2463400, press_abs : 1057.7657470703125, press_diff : 0.0, temperature : 2988}
2019-06-19 15:10:21.867902 ATTITUDE {time_boot_ms : 2463650, roll : -1.5759950876235962, pitch : -0.0038825073279440403, yaw : -1.6862725019454956, rollspeed : -0.0009737101499922574, pitchspeed : 0.0011697906302288175, yawspeed : -0.0007104221731424332}
2019-06-19 15:10:21.868915 SYS_STATUS {onboard_control_sensors_present : 52493359, onboard_control_sensors_enabled : 35691567, onboard_control_sensors_health : 52468783, load : 0, voltage_battery : 24830, current_battery : 0, battery_remaining : 100, drop_rate_comm : 0, errors_comm : 0, errors_count1 : 0, errors_count2 : 0, errors_count3 : 0, errors_count4 : 0}
2019-06-19 15:10:21.873916 RAW_IMU {time_usec : 2463650812, xacc : 0, yacc : 1020, zacc : 0, xgyro : 0, ygyro : 0, zgyro : 0, xmag : -57, ymag : -407, zmag : 206}
2019-06-19 15:10:21.874903 SCALED_PRESSURE {time_boot_ms : 2463650, press_abs : 1046.1705322265625, press_diff : 0.0, temperature : 2991}
2019-06-19 15:10:22.103772 ATTITUDE {time_boot_ms : 2463900, roll : -1.5759278535842896, pitch : -0.003864178666844964, yaw : -1.6860960721969604, rollspeed : -0.0008056822698563337, pitchspeed : 0.0010352565441280603, yawspeed : -0.0007704880554229021}
2019-06-19 15:10:22.109763 RAW_IMU {time_usec : 2463900712, xacc : 0, yacc : 1020, zacc : 0, xgyro : 0, ygyro : 0, zgyro : 0, xmag : -57, ymag : -407, zmag : 206}
2019-06-19 15:10:22.370115 SYS_STATUS {onboard_control_sensors_present : 52493359, onboard_control_sensors_enabled : 35691567, onboard_control_sensors_health : 52468783, load : 0, voltage_battery : 24830, current_battery : 0, battery_remaining : 100, drop_rate_comm : 0, errors_comm : 0, errors_count1 : 0, errors_count2 : 0, errors_count3 : 0, errors_count4 : 0}
2019-06-19 15:10:22.375116 RAW_IMU {time_usec : 2464150612, xacc : 0, yacc : 1020, zacc : 0, xgyro : 1, ygyro : 0, zgyro : 0, xmag : -57, ymag : -407, zmag : 206}
2019-06-19 15:10:22.376116 SCALED_PRESSURE {time_boot_ms : 2464150, press_abs : 1035.7137451171875, press_diff : 0.0, temperature : 2994}
2019-06-19 15:10:22.608244 SYS_STATUS {onboard_control_sensors_present : 52493359, onboard_control_sensors_enabled : 35691567, onboard_control_sensors_health : 52468783, load : 0, voltage_battery : 24830, current_battery : 0, battery_remaining : 100, drop_rate_comm : 0, errors_comm : 0, errors_count1 : 0, errors_count2 : 0, errors_count3 : 0, errors_count4 : 0}
2019-06-19 15:10:22.616245 RAW_IMU {time_usec : 2464400512, xacc : 0, yacc : 1020, zacc : 0, xgyro : 0, ygyro : 0, zgyro : 0, xmag : -57, ymag : -407, zmag : 206}
2019-06-19 15:10:22.886424 RAW_IMU {time_usec : 2464650412, xacc : 0, yacc : 1020, zacc : 0, xgyro : 1, ygyro : 0, zgyro : 0, xmag : -57, ymag : -407, zmag : 206}
2019-06-19 15:10:23.117812 ATTITUDE {time_boot_ms : 2464900, roll : -1.5758390426635742, pitch : -0.0038069875445216894, yaw : -1.6854634284973145, rollspeed : -0.0008898000232875347, pitchspeed : 0.0010474324226379395, yawspeed : -0.0006281898822635412}
2019-06-19 15:10:23.255823 HEARTBEAT {type : 12, autopilot : 3, base_mode : 81, custom_mode : 19, system_status : 3, mavlink_version : 3}
2019-06-19 15:10:23.395955 ATTITUDE {time_boot_ms : 2465150, roll : -1.5757825374603271, pitch : -0.003789344569668174, yaw : -1.685299038887024, rollspeed : -0.0009493243414908648, pitchspeed : 0.0010837458539754152, yawspeed : -0.0007568465662188828}
2019-06-19 15:10:23.396956 SYS_STATUS {onboard_control_sensors_present : 52493359, onboard_control_sensors_enabled : 35691567, onboard_control_sensors_health : 52468783, load : 0, voltage_battery : 24830, current_battery : 0, battery_remaining : 100, drop_rate_comm : 0, errors_comm : 0, errors_count1 : 0, errors_count2 : 0, errors_count3 : 0, errors_count4 : 0}
2019-06-19 15:10:23.403955 RAW_IMU {time_usec : 2465150212, xacc : 0, yacc : 1020, zacc : 0, xgyro : 0, ygyro : 0, zgyro : 0, xmag : -57, ymag : -407, zmag : 206}
2019-06-19 15:10:23.403955 SCALED_PRESSURE {time_boot_ms : 2465150, press_abs : 1036.9019775390625, press_diff : 0.0, temperature : 2994}
2019-06-19 15:10:23.651115 RAW_IMU {time_usec : 2465400945, xacc : 0, yacc : 1020, zacc : 0, xgyro : 1, ygyro : 0, zgyro : 1, xmag : -57, ymag : -407, zmag : 206}
2019-06-19 15:10:23.652113 SCALED_PRESSURE {time_boot_ms : 2465400, press_abs : 1029.996337890625, press_diff : 0.0, temperature : 2996}
2019-06-19 15:10:24.156003 SYS_STATUS {onboard_control_sensors_present : 52493359, onboard_control_sensors_enabled : 35691567, onboard_control_sensors_health : 52468783, load : 0, voltage_battery : 24830, current_battery : 0, battery_remaining : 100, drop_rate_comm : 0, errors_comm : 0, errors_count1 : 0, errors_count2 : 0, errors_count3 : 0, errors_count4 : 0}
2019-06-19 15:10:24.161003 SCALED_PRESSURE {time_boot_ms : 2465900, press_abs : 1037.6212158203125, press_diff : 0.0, temperature : 2994}
2019-06-19 15:10:24.292379 HEARTBEAT {type : 12, autopilot : 3, base_mode : 81, custom_mode : 19, system_status : 3, mavlink_version : 3}
2019-06-19 15:10:24.436392 SYS_STATUS {onboard_control_sensors_present : 52493359, onboard_control_sensors_enabled : 35691567, onboard_control_sensors_health : 52468783, load : 0, voltage_battery : 24830, current_battery : 0, battery_remaining : 100, drop_rate_comm : 0, errors_comm : 0, errors_count1 : 0, errors_count2 : 0, errors_count3 : 0, errors_count4 : 0}
2019-06-19 15:10:24.444393 SCALED_PRESSURE {time_boot_ms : 2466150, press_abs : 1058.6890869140625, press_diff : 0.0, temperature : 2988}
2019-06-19 15:10:24.702443 RAW_IMU {time_usec : 2466400545, xacc : 0, yacc : 1020, zacc : 0, xgyro : 0, ygyro : 0, zgyro : 0, xmag : -57, ymag : -407, zmag : 206}
2019-06-19 15:10:24.703441 SCALED_PRESSURE {time_boot_ms : 2466400, press_abs : 1045.8719482421875, press_diff : 0.0, temperature : 2992}
2019-06-19 15:10:24.951727 ATTITUDE {time_boot_ms : 2466650, roll : -1.5755493640899658, pitch : -0.0036717436742037535, yaw : -1.6842844486236572, rollspeed : -0.0007809284143149853, pitchspeed : 0.0009497422724962234, yawspeed : -0.0007108910358510911}
2019-06-19 15:10:24.958741 SCALED_PRESSURE {time_boot_ms : 2466650, press_abs : 1045.6514892578125, press_diff : 0.0, temperature : 2992}
2019-06-19 15:10:25.208053 SCALED_PRESSURE {time_boot_ms : 2466900, press_abs : 1047.6007080078125, press_diff : 0.0, temperature : 2991}
2019-06-19 15:10:25.342064 HEARTBEAT {type : 12, autopilot : 3, base_mode : 81, custom_mode : 19, system_status : 3, mavlink_version : 3}
2019-06-19 15:10:25.471141 ATTITUDE {time_boot_ms : 2467150, roll : -1.5756288766860962, pitch : -0.0036473653744906187, yaw : -1.6839464902877808, rollspeed : -0.000606261077336967, pitchspeed : 0.0009713537292554975, yawspeed : -0.0007316186092793941}
2019-06-19 15:10:25.479118 RAW_IMU {time_usec : 2467150245, xacc : 0, yacc : 1020, zacc : 0, xgyro : 1, ygyro : 0, zgyro : 0, xmag : -57, ymag : -407, zmag : 206}
2019-06-19 15:10:25.480118 SCALED_PRESSURE {time_boot_ms : 2467150, press_abs : 1047.12353515625, press_diff : 0.0, temperature : 2991}
2019-06-19 15:10:25.704153 ATTITUDE {time_boot_ms : 2467400, roll : -1.575588583946228, pitch : -0.0036285598762333393, yaw : -1.6837784051895142, rollspeed : -0.0007763366447761655, pitchspeed : 0.0008216972928494215, yawspeed : -0.0006219787755981088}
2019-06-19 15:10:25.957348 ATTITUDE {time_boot_ms : 2467650, roll : -1.575600504875183, pitch : -0.0036133010871708393, yaw : -1.6836127042770386, rollspeed : -0.0007475684396922588, pitchspeed : 0.0009925620397552848, yawspeed : -0.0006914585246704519}
2019-06-19 15:10:25.959347 SYS_STATUS {onboard_control_sensors_present : 52493359, onboard_control_sensors_enabled : 35691567, onboard_control_sensors_health : 52468783, load : 0, voltage_battery : 24830, current_battery : 0, battery_remaining : 100, drop_rate_comm : 0, errors_comm : 0, errors_count1 : 0, errors_count2 : 0, errors_count3 : 0, errors_count4 : 0}
2019-06-19 15:10:25.963349 RAW_IMU {time_usec : 2467650878, xacc : 0, yacc : 1020, zacc : 0, xgyro : 1, ygyro : 0, zgyro : 0, xmag : -57, ymag : -407, zmag : 206}
2019-06-19 15:10:25.964349 SCALED_PRESSURE {time_boot_ms : 2467650, press_abs : 1021.670654296875, press_diff : 0.0, temperature : 2998}
2019-06-19 15:10:26.192988 SYS_STATUS {onboard_control_sensors_present : 52493359, onboard_control_sensors_enabled : 35691567, onboard_control_sensors_health : 52468783, load : 0, voltage_battery : 24830, current_battery : 0, battery_remaining : 100, drop_rate_comm : 0, errors_comm : 0, errors_count1 : 0, errors_count2 : 0, errors_count3 : 0, errors_count4 : 0}
2019-06-19 15:10:26.208986 RAW_IMU {time_usec : 2467900778, xacc : 0, yacc : 1020, zacc : 0, xgyro : 0, ygyro : -1, zgyro : 0, xmag : -57, ymag : -407, zmag : 206}
2019-06-19 15:10:26.209986 SCALED_PRESSURE {time_boot_ms : 2467900, press_abs : 1037.793212890625, press_diff : 0.0, temperature : 2994}
2019-06-19 15:10:26.340995 HEARTBEAT {type : 12, autopilot : 3, base_mode : 81, custom_mode : 19, system_status : 3, mavlink_version : 3}
2019-06-19 15:10:26.472422 ATTITUDE {time_boot_ms : 2468150, roll : -1.5756635665893555, pitch : -0.003544338047504425, yaw : -1.6832834482192993, rollspeed : -0.0007648913888260722, pitchspeed : 0.0010283376323059201, yawspeed : -0.0005440234672278166}
2019-06-19 15:10:26.474424 SYS_STATUS {onboard_control_sensors_present : 52493359, onboard_control_sensors_enabled : 35691567, onboard_control_sensors_health : 52468783, load : 0, voltage_battery : 24830, current_battery : 0, battery_remaining : 100, drop_rate_comm : 0, errors_comm : 0, errors_count1 : 0, errors_count2 : 0, errors_count3 : 0, errors_count4 : 0}
2019-06-19 15:10:26.480422 RAW_IMU {time_usec : 2468150678, xacc : 0, yacc : 1020, zacc : 0, xgyro : 0, ygyro : 0, zgyro : 1, xmag : -57, ymag : -407, zmag : 206}
2019-06-19 15:10:26.481423 SCALED_PRESSURE {time_boot_ms : 2468150, press_abs : 1040.0244140625, press_diff : 0.0, temperature : 2993}
2019-06-19 15:10:26.966633 RAW_IMU {time_usec : 2468650478, xacc : 0, yacc : 1020, zacc : 0, xgyro : 0, ygyro : 0, zgyro : 1, xmag : -57, ymag : -407, zmag : 206}
2019-06-19 15:10:26.967632 SCALED_PRESSURE {time_boot_ms : 2468650, press_abs : 1025.7796630859375, press_diff : 0.0, temperature : 2997}
2019-06-19 15:10:27.191687 ATTITUDE {time_boot_ms : 2468900, roll : -1.5756527185440063, pitch : -0.0034832428209483624, yaw : -1.6827572584152222, rollspeed : -0.0006499383598566055, pitchspeed : 0.0008059911197051406, yawspeed : -0.00066713010892272}
2019-06-19 15:10:27.193687 SYS_STATUS {onboard_control_sensors_present : 52493359, onboard_control_sensors_enabled : 35691567, onboard_control_sensors_health : 52468783, load : 0, voltage_battery : 24830, current_battery : 0, battery_remaining : 100, drop_rate_comm : 0, errors_comm : 0, errors_count1 : 0, errors_count2 : 0, errors_count3 : 0, errors_count4 : 0}
2019-06-19 15:10:27.457875 RAW_IMU {time_usec : 2469150278, xacc : 0, yacc : 1019, zacc : 0, xgyro : 1, ygyro : -1, zgyro : 1, xmag : -57, ymag : -407, zmag : 206}
2019-06-19 15:10:27.684058 SYS_STATUS {onboard_control_sensors_present : 52493359, onboard_control_sensors_enabled : 35691567, onboard_control_sensors_health : 52468783, load : 0, voltage_battery : 24830, current_battery : 0, battery_remaining : 100, drop_rate_comm : 0, errors_comm : 0, errors_count1 : 0, errors_count2 : 0, errors_count3 : 0, errors_count4 : 0}
2019-06-19 15:10:27.933112 ATTITUDE {time_boot_ms : 2469650, roll : -1.5754090547561646, pitch : -0.0034431584645062685, yaw : -1.6822654008865356, rollspeed : -0.0008538899128325284, pitchspeed : 0.0010369981173425913, yawspeed : -0.0006464961916208267}
2019-06-19 15:10:27.936116 SYS_STATUS {onboard_control_sensors_present : 52493359, onboard_control_sensors_enabled : 35691567, onboard_control_sensors_health : 52468783, load : 0, voltage_battery : 24830, current_battery : 0, battery_remaining : 100, drop_rate_comm : 0, errors_comm : 0, errors_count1 : 0, errors_count2 : 0, errors_count3 : 0, errors_count4 : 0}
