2019-06-19 14:47:57.603221 SYS_STATUS {onboard_control_sensors_present : 52493359, onboard_control_sensors_enabled : 35691567, onboard_control_sensors_health : 52468783, load : 0, voltage_battery : 24830, current_battery : 0, battery_remaining : 100, drop_rate_comm : 0, errors_comm : 0, errors_count1 : 0, errors_count2 : 0, errors_count3 : 0, errors_count4 : 0}
2019-06-19 14:47:57.605220 POWER_STATUS {Vcc : 5000, Vservo : 0, flags : 0}
2019-06-19 14:47:57.605220 MEMINFO {brkval : 0, freemem : 65535}
2019-06-19 14:47:57.607220 MISSION_CURRENT {seq : 0}
2019-06-19 14:47:57.608225 VFR_HUD {airspeed : 0.0, groundspeed : 0.15960516035556793, heading : 265, throttle : 0, alt : -0.20999999344348907, climb : -0.0026201331056654453}
2019-06-19 14:47:57.610223 SERVO_OUTPUT_RAW {time_usec : 1134150325, port : 0, servo1_raw : 1500, servo2_raw : 1500, servo3_raw : 1500, servo4_raw : 1500, servo5_raw : 1500, servo6_raw : 1500, servo7_raw : 1500, servo8_raw : 1500}
2019-06-19 14:47:57.610223 RC_CHANNELS_RAW {time_boot_ms : 1134150, port : 0, chan1_raw : 1500, chan2_raw : 1500, chan3_raw : 1500, chan4_raw : 1500, chan5_raw : 1500, chan6_raw : 1500, chan7_raw : 1500, chan8_raw : 1500, rssi : 0}
2019-06-19 14:47:57.611223 RC_CHANNELS {time_boot_ms : 1134150, chancount : 16, chan1_raw : 1500, chan2_raw : 1500, chan3_raw : 1500, chan4_raw : 1500, chan5_raw : 1500, chan6_raw : 1500, chan7_raw : 1500, chan8_raw : 1500, chan9_raw : 0, chan10_raw : 0, chan11_raw : 0, chan12_raw : 0, chan13_raw : 0, chan14_raw : 0, chan15_raw : 0, chan16_raw : 0, chan17_raw : 0, chan18_raw : 0, rssi : 0}
2019-06-19 14:47:57.612227 RAW_IMU {time_usec : 1134150325, xacc : 0, yacc : 1020, zacc : 0, xgyro : 0, ygyro : 0, zgyro : 1, xmag : -57, ymag : -407, zmag : 206}
2019-06-19 14:47:57.613220 SCALED_IMU2 {time_boot_ms : 1134150, xacc : 0, yacc : 1020, zacc : 0, xgyro : 0, ygyro : 0, zgyro : 0, xmag : -57, ymag : -407, zmag : 206}
2019-06-19 14:47:57.614220 SCALED_PRESSURE3 {time_boot_ms : 1134150, press_abs : 0.0, press_diff : 0.0, temperature : 4242}
2019-06-19 14:47:57.614220 GPS_RAW_INT {time_usec : 1133966000, fix_type : 6, lat : 338103130, lon : -1183938670, alt : -250, eph : 121, epv : 200, vel : 0, cog : 0, satellites_visible : 10}
2019-06-19 14:47:57.616219 AHRS {omegaIx : -0.0024486486800014973, omegaIy : 0.0025905498769134283, omegaIz : -0.0023258377332240343, accel_weight : 0.0, renorm_val : 0.0, error_rp : 0.00171872868668288, error_yaw : 0.7109355926513672}
2019-06-19 14:47:57.616219 SIMSTATE {roll : -1.5707963705062866, pitch : -0.0, yaw : -1.5707963705062866, xacc : 0.0, yacc : 0.0, zacc : -9.997200012207031, xgyro : 0.0, ygyro : 0.0, zgyro : 0.0, lat : 338103130, lng : -1183938670}
2019-06-19 14:47:57.616219 AHRS2 {roll : -1.572401762008667, pitch : -0.00046570520498789847, yaw : 0.7464144825935364, altitude : 0.0, lat : 0, lng : 0}
2019-06-19 14:47:57.617220 AHRS3 {roll : -1.5758851766586304, pitch : -0.0066254623234272, yaw : -1.6558510065078735, altitude : -0.20999999344348907, lat : 338103120, lng : -1183938680, v1 : 0.0, v2 : 0.0, v3 : 0.0, v4 : 0.0}
2019-06-19 14:47:57.617220 HWSTATUS {Vcc : 5000, I2Cerr : 0}
2019-06-19 14:47:57.621221 NAMED_VALUE_FLOAT {time_boot_ms : 1134150, name : Lights2, value : 0.5}
2019-06-19 14:47:57.621221 NAMED_VALUE_FLOAT {time_boot_ms : 1134150, name : PilotGain, value : 0.5}
2019-06-19 14:47:57.622220 NAMED_VALUE_FLOAT {time_boot_ms : 1134150, name : InputHold, value : 0.0}
2019-06-19 14:47:57.837488 SYS_STATUS {onboard_control_sensors_present : 52493359, onboard_control_sensors_enabled : 35691567, onboard_control_sensors_health : 52468783, load : 0, voltage_battery : 24830, current_battery : 0, battery_remaining : 100, drop_rate_comm : 0, errors_comm : 0, errors_count1 : 0, errors_count2 : 0, errors_count3 : 0, errors_count4 : 0}
2019-06-19 14:47:57.838467 POWER_STATUS {Vcc : 5000, Vservo : 0, flags : 0}
2019-06-19 14:47:57.839466 NAV_CONTROLLER_OUTPUT {nav_roll : -90.2894287109375, nav_pitch : -0.37987905740737915, nav_bearing : -94, target_bearing : 39, wp_dist : 0, alt_error : 0.1968894600868225, aspd_error : 0.0, xtrack_error : 0.0}
2019-06-19 14:47:57.841466 SERVO_OUTPUT_RAW {time_usec : 1134400225, port : 0, servo1_raw : 1500, servo2_raw : 1500, servo3_raw : 1500, servo4_raw : 1500, servo5_raw : 1500, servo6_raw : 1500, servo7_raw : 1500, servo8_raw : 1500}
2019-06-19 14:47:57.845467 AHRS2 {roll : -1.572413682937622, pitch : -0.0004696289834100753, yaw : 0.746658980846405, altitude : 0.0, lat : 0, lng : 0}
2019-06-19 14:47:57.846468 AHRS3 {roll : -1.5758479833602905, pitch : -0.0066301412880420685, yaw : -1.6560300588607788, altitude : -0.20999999344348907, lat : 338103120, lng : -1183938680, v1 : 0.0, v2 : 0.0, v3 : 0.0, v4 : 0.0}
2019-06-19 14:47:57.847467 EKF_STATUS_REPORT {flags : 831, velocity_variance : 0.03243418410420418, pos_horiz_variance : 0.017056820914149284, pos_vert_variance : 0.36038869619369507, compass_variance : 0.048702917993068695, terrain_alt_variance : 0.0}
2019-06-19 14:47:57.849466 NAMED_VALUE_FLOAT {time_boot_ms : 1134400, name : CamPan, value : 0.5}
2019-06-19 14:47:57.850467 NAMED_VALUE_FLOAT {time_boot_ms : 1134400, name : InputHold, value : 0.0}
2019-06-19 14:47:58.092568 SYS_STATUS {onboard_control_sensors_present : 52493359, onboard_control_sensors_enabled : 35691567, onboard_control_sensors_health : 52468783, load : 0, voltage_battery : 24830, current_battery : 0, battery_remaining : 100, drop_rate_comm : 0, errors_comm : 0, errors_count1 : 0, errors_count2 : 0, errors_count3 : 0, errors_count4 : 0}
2019-06-19 14:47:58.094576 POWER_STATUS {Vcc : 5000, Vservo : 0, flags : 0}
2019-06-19 14:47:58.095568 MEMINFO {brkval : 0, freemem : 65535}
2019-06-19 14:47:58.096568 NAV_CONTROLLER_OUTPUT {nav_roll : -90.3011245727539, nav_pitch : -0.3818974494934082, nav_bearing : -94, target_bearing : 39, wp_dist : 0, alt_error : 0.23261083662509918, aspd_error : 0.0, xtrack_error : 0.0}
2019-06-19 14:47:58.097568 MISSION_CURRENT {seq : 0}
2019-06-19 14:47:58.100571 RC_CHANNELS_RAW {time_boot_ms : 1134650, port : 0, chan1_raw : 1500, chan2_raw : 1500, chan3_raw : 1500, chan4_raw : 1500, chan5_raw : 1500, chan6_raw : 1500, chan7_raw : 1500, chan8_raw : 1500, rssi : 0}
2019-06-19 14:47:58.100571 RC_CHANNELS {time_boot_ms : 1134650, chancount : 16, chan1_raw : 1500, chan2_raw : 1500, chan3_raw : 1500, chan4_raw : 1500, chan5_raw : 1500, chan6_raw : 1500, chan7_raw : 1500, chan8_raw : 1500, chan9_raw : 0, chan10_raw : 0, chan11_raw : 0, chan12_raw : 0, chan13_raw : 0, chan14_raw : 0, chan15_raw : 0, chan16_raw : 0, chan17_raw : 0, chan18_raw : 0, rssi : 0}
2019-06-19 14:47:58.100571 RAW_IMU {time_usec : 1134650958, xacc : 0, yacc : 1020, zacc : 0, xgyro : 0, ygyro : 0, zgyro : 0, xmag : -57, ymag : -407, zmag : 206}
2019-06-19 14:47:58.101568 SCALED_IMU2 {time_boot_ms : 1134650, xacc : 0, yacc : 1020, zacc : 0, xgyro : 0, ygyro : 0, zgyro : 0, xmag : -57, ymag : -407, zmag : 206}
2019-06-19 14:47:58.101568 SCALED_PRESSURE {time_boot_ms : 1134650, press_abs : 1055.6033935546875, press_diff : 0.0, temperature : 2989}
2019-06-19 14:47:58.102569 SCALED_PRESSURE3 {time_boot_ms : 1134650, press_abs : 0.0, press_diff : 0.0, temperature : 4242}
2019-06-19 14:47:58.103581 SYSTEM_TIME {time_unix_usec : 1560980866627521, time_boot_ms : 1134650}
2019-06-19 14:47:58.103581 AHRS {omegaIx : -0.00244103092700243, omegaIy : 0.0025829237420111895, omegaIz : -0.0023185580503195524, accel_weight : 0.0, renorm_val : 0.0, error_rp : 0.0017286123475059867, error_yaw : 0.7105845212936401}
2019-06-19 14:47:58.104567 SIMSTATE {roll : -1.5707963705062866, pitch : -0.0, yaw : -1.5707963705062866, xacc : 0.0, yacc : 0.0, zacc : -9.997125625610352, xgyro : 0.0, ygyro : 0.0, zgyro : 0.0, lat : 338103130, lng : -1183938670}
2019-06-19 14:47:58.104567 AHRS2 {roll : -1.572425127029419, pitch : -0.00048030228936113417, yaw : 0.7468991875648499, altitude : 0.0, lat : 0, lng : 0}
2019-06-19 14:47:58.104567 AHRS3 {roll : -1.5760520696640015, pitch : -0.006665368564426899, yaw : -1.6562038660049438, altitude : -0.25, lat : 338103120, lng : -1183938680, v1 : 0.0, v2 : 0.0, v3 : 0.0, v4 : 0.0}
2019-06-19 14:47:58.105567 HWSTATUS {Vcc : 5000, I2Cerr : 0}
2019-06-19 14:47:58.105567 MOUNT_STATUS {target_system : 0, target_component : 0, pointing_a : 0, pointing_b : 0, pointing_c : 0}
2019-06-19 14:47:58.106567 EKF_STATUS_REPORT {flags : 831, velocity_variance : 0.033016569912433624, pos_horiz_variance : 0.017188547179102898, pos_vert_variance : 0.11683201789855957, compass_variance : 0.048846472054719925, terrain_alt_variance : 0.0}
2019-06-19 14:47:58.107567 LOCAL_POSITION_NED {time_boot_ms : 1134650, x : -0.11882135272026062, y : -0.09734303504228592, z : 0.4226108193397522, vx : -0.12450070679187775, vy : -0.101768359541893, vz : 0.011129307560622692}
2019-06-19 14:47:58.107567 VIBRATION {time_usec : 1134650958, vibration_x : 0.005655695218592882, vibration_y : 0.478549599647522, vibration_z : 0.005414766259491444, clipping_0 : 0, clipping_1 : 0, clipping_2 : 0}
2019-06-19 14:47:58.107567 BATTERY_STATUS {id : 0, battery_function : 0, type : 0, temperature : 32767, voltages : [24830, 65535, 65535, 65535, 65535, 65535, 65535, 65535, 65535, 65535], current_battery : 0, current_consumed : 0, energy_consumed : 0, battery_remaining : 100}
2019-06-19 14:47:58.108568 NAMED_VALUE_FLOAT {time_boot_ms : 1134650, name : CamTilt, value : 0.5}
2019-06-19 14:47:58.108568 NAMED_VALUE_FLOAT {time_boot_ms : 1134650, name : CamPan, value : 0.5}
2019-06-19 14:47:58.108568 NAMED_VALUE_FLOAT {time_boot_ms : 1134650, name : TetherTrn, value : 0.0}
2019-06-19 14:47:58.108568 NAMED_VALUE_FLOAT {time_boot_ms : 1134650, name : Lights1, value : -1.375}
2019-06-19 14:47:58.109567 NAMED_VALUE_FLOAT {time_boot_ms : 1134650, name : Lights2, value : 0.5}
2019-06-19 14:47:58.109567 NAMED_VALUE_FLOAT {time_boot_ms : 1134650, name : PilotGain, value : 0.5}
2019-06-19 14:47:58.109567 NAMED_VALUE_FLOAT {time_boot_ms : 1134650, name : InputHold, value : 0.0}
2019-06-19 14:47:58.334594 SYS_STATUS {onboard_control_sensors_present : 52493359, onboard_control_sensors_enabled : 35691567, onboard_control_sensors_health : 52468783, load : 0, voltage_battery : 24830, current_battery : 0, battery_remaining : 100, drop_rate_comm : 0, errors_comm : 0, errors_count1 : 0, errors_count2 : 0, errors_count3 : 0, errors_count4 : 0}
2019-06-19 14:47:58.335602 POWER_STATUS {Vcc : 5000, Vservo : 0, flags : 0}
2019-06-19 14:47:58.335602 MEMINFO {brkval : 0, freemem : 65535}
2019-06-19 14:47:58.336589 NAV_CONTROLLER_OUTPUT {nav_roll : -90.31007385253906, nav_pitch : -0.38320547342300415, nav_bearing : -94, target_bearing : 39, wp_dist : 0, alt_error : 0.2507370710372925, aspd_error : 0.0, xtrack_error : 0.0}
2019-06-19 14:47:58.339587 SCALED_IMU2 {time_boot_ms : 1134900, xacc : 0, yacc : 922, zacc : 0, xgyro : 1, ygyro : 0, zgyro : 1, xmag : -57, ymag : -407, zmag : 206}
2019-06-19 14:47:58.339587 SCALED_IMU3 {time_boot_ms : 1134900, xacc : 0, yacc : 0, zacc : 0, xgyro : 0, ygyro : 0, zgyro : 0, xmag : -57, ymag : -407, zmag : 206}
2019-06-19 14:47:58.339587 SCALED_PRESSURE {time_boot_ms : 1134900, press_abs : 1018.7308959960938, press_diff : 0.0, temperature : 2999}
2019-06-19 14:47:58.340587 SCALED_PRESSURE3 {time_boot_ms : 1134900, press_abs : 0.0, press_diff : 0.0, temperature : 4242}
2019-06-19 14:47:58.340587 GPS_RAW_INT {time_usec : 1134766000, fix_type : 6, lat : 338103130, lon : -1183938670, alt : -250, eph : 121, epv : 200, vel : 0, cog : 0, satellites_visible : 10}
2019-06-19 14:47:58.341588 AHRS {omegaIx : -0.0024406679440289736, omegaIy : 0.0025840154848992825, omegaIz : -0.0023181671276688576, accel_weight : 0.0, renorm_val : 0.0, error_rp : 0.0017363339429721236, error_yaw : 0.710442066192627}
2019-06-19 14:47:58.342588 SIMSTATE {roll : -1.5707963705062866, pitch : -0.0, yaw : -1.5707963705062866, xacc : 0.0, yacc : 0.0, zacc : -9.99804401397705, xgyro : 0.0, ygyro : 0.0, zgyro : 0.0, lat : 338103130, lng : -1183938670}
2019-06-19 14:47:58.344588 VIBRATION {time_usec : 1134900858, vibration_x : 0.005946585442870855, vibration_y : 1.676523208618164, vibration_z : 0.005628840532153845, clipping_0 : 0, clipping_1 : 0, clipping_2 : 0}
2019-06-19 14:47:58.344588 BATTERY_STATUS {id : 0, battery_function : 0, type : 0, temperature : 32767, voltages : [24830, 65535, 65535, 65535, 65535, 65535, 65535, 65535, 65535, 65535], current_battery : 0, current_consumed : 0, energy_consumed : 0, battery_remaining : 100}
2019-06-19 14:47:58.345588 NAMED_VALUE_FLOAT {time_boot_ms : 1134900, name : CamPan, value : 0.5}
2019-06-19 14:47:58.345588 NAMED_VALUE_FLOAT {time_boot_ms : 1134900, name : TetherTrn, value : 0.0}
2019-06-19 14:47:58.345588 NAMED_VALUE_FLOAT {time_boot_ms : 1134900, name : Lights1, value : -1.375}
2019-06-19 14:47:58.346588 NAMED_VALUE_FLOAT {time_boot_ms : 1134900, name : Lights2, value : 0.5}
2019-06-19 14:47:58.346588 NAMED_VALUE_FLOAT {time_boot_ms : 1134900, name : PilotGain, value : 0.5}
2019-06-19 14:47:58.346588 NAMED_VALUE_FLOAT {time_boot_ms : 1134900, name : InputHold, value : 0.0}
2019-06-19 14:47:58.474014 HEARTBEAT {type : 12, autopilot : 3, base_mode : 81, custom_mode : 19, system_status : 3, mavlink_version : 3}
2019-06-19 14:47:58.613065 ATTITUDE {time_boot_ms : 1135150, roll : -1.5762910842895508, pitch : -0.006681730505079031, yaw : -1.6565520763397217, rollspeed : -0.0014058452798053622, pitchspeed : 0.0016118040075525641, yawspeed : -0.001562170684337616}
2019-06-19 14:47:58.615067 SYS_STATUS {onboard_control_sensors_present : 52493359, onboard_control_sensors_enabled : 35691567, onboard_control_sensors_health : 52468783, load : 0, voltage_battery : 24830, current_battery : 0, battery_remaining : 100, drop_rate_comm : 0, errors_comm : 0, errors_count1 : 0, errors_count2 : 0, errors_count3 : 0, errors_count4 : 0}
2019-06-19 14:47:58.617066 POWER_STATUS {Vcc : 5000, Vservo : 0, flags : 0}
2019-06-19 14:47:58.618066 MEMINFO {brkval : 0, freemem : 65535}
2019-06-19 14:47:58.618066 NAV_CONTROLLER_OUTPUT {nav_roll : -90.3148193359375, nav_pitch : -0.38283491134643555, nav_bearing : -94, target_bearing : 39, wp_dist : 0, alt_error : 0.27774161100387573, aspd_error : 0.0, xtrack_error : 0.0}
2019-06-19 14:47:58.621066 RC_CHANNELS_RAW {time_boot_ms : 1135150, port : 0, chan1_raw : 1500, chan2_raw : 1500, chan3_raw : 1500, chan4_raw : 1500, chan5_raw : 1500, chan6_raw : 1500, chan7_raw : 1500, chan8_raw : 1500, rssi : 0}
2019-06-19 14:47:58.621066 RC_CHANNELS {time_boot_ms : 1135150, chancount : 16, chan1_raw : 1500, chan2_raw : 1500, chan3_raw : 1500, chan4_raw : 1500, chan5_raw : 1500, chan6_raw : 1500, chan7_raw : 1500, chan8_raw : 1500, chan9_raw : 0, chan10_raw : 0, chan11_raw : 0, chan12_raw : 0, chan13_raw : 0, chan14_raw : 0, chan15_raw : 0, chan16_raw : 0, chan17_raw : 0, chan18_raw : 0, rssi : 0}
2019-06-19 14:47:58.622066 RAW_IMU {time_usec : 1135150758, xacc : 0, yacc : 1020, zacc : 0, xgyro : 1, ygyro : 0, zgyro : 0, xmag : -57, ymag : -407, zmag : 206}
2019-06-19 14:47:58.623075 SCALED_IMU3 {time_boot_ms : 1135150, xacc : 0, yacc : 0, zacc : 0, xgyro : 0, ygyro : 0, zgyro : 0, xmag : -57, ymag : -407, zmag : 206}
2019-06-19 14:47:58.623075 SCALED_PRESSURE {time_boot_ms : 1135150, press_abs : 1023.8405151367188, press_diff : 0.0, temperature : 2998}
2019-06-19 14:47:58.623075 SCALED_PRESSURE3 {time_boot_ms : 1135150, press_abs : 0.0, press_diff : 0.0, temperature : 4242}
2019-06-19 14:47:58.625076 AHRS {omegaIx : -0.002440596232190728, omegaIy : 0.0025842508766800165, omegaIz : -0.002318032318726182, accel_weight : 0.0, renorm_val : 0.0, error_rp : 0.0017387167317792773, error_yaw : 0.7102404832839966}
2019-06-19 14:47:58.625076 SIMSTATE {roll : -1.5707963705062866, pitch : -0.0, yaw : -1.5707963705062866, xacc : 0.0, yacc : 0.0, zacc : -9.99708080291748, xgyro : 0.0, ygyro : 0.0, zgyro : 0.0, lat : 338103130, lng : -1183938670}
2019-06-19 14:47:58.625076 AHRS2 {roll : -1.5724250078201294, pitch : -0.0004811716207768768, yaw : 0.7473689913749695, altitude : 0.0, lat : 0, lng : 0}
2019-06-19 14:47:58.628066 BATTERY_STATUS {id : 0, battery_function : 0, type : 0, temperature : 32767, voltages : [24830, 65535, 65535, 65535, 65535, 65535, 65535, 65535, 65535, 65535], current_battery : 0, current_consumed : 0, energy_consumed : 0, battery_remaining : 100}
2019-06-19 14:47:58.628066 NAMED_VALUE_FLOAT {time_boot_ms : 1135150, name : CamTilt, value : 0.5}
2019-06-19 14:47:58.629082 NAMED_VALUE_FLOAT {time_boot_ms : 1135150, name : TetherTrn, value : 0.0}
2019-06-19 14:47:58.629082 NAMED_VALUE_FLOAT {time_boot_ms : 1135150, name : Lights1, value : -1.375}
2019-06-19 14:47:58.629082 NAMED_VALUE_FLOAT {time_boot_ms : 1135150, name : Lights2, value : 0.5}
2019-06-19 14:47:58.629082 NAMED_VALUE_FLOAT {time_boot_ms : 1135150, name : PilotGain, value : 0.5}
2019-06-19 14:47:58.629082 NAMED_VALUE_FLOAT {time_boot_ms : 1135150, name : InputHold, value : 0.0}
2019-06-19 14:47:58.858117 ATTITUDE {time_boot_ms : 1135400, roll : -1.5760568380355835, pitch : -0.006671001203358173, yaw : -1.6567275524139404, rollspeed : -0.001530259964056313, pitchspeed : 0.0015262158121913671, yawspeed : -0.0014217882417142391}
2019-06-19 14:47:58.860114 SYS_STATUS {onboard_control_sensors_present : 52493359, onboard_control_sensors_enabled : 35691567, onboard_control_sensors_health : 52468783, load : 0, voltage_battery : 24830, current_battery : 0, battery_remaining : 100, drop_rate_comm : 0, errors_comm : 0, errors_count1 : 0, errors_count2 : 0, errors_count3 : 0, errors_count4 : 0}
2019-06-19 14:47:58.862115 MISSION_CURRENT {seq : 0}
2019-06-19 14:47:58.864114 RC_CHANNELS_RAW {time_boot_ms : 1135400, port : 0, chan1_raw : 1500, chan2_raw : 1500, chan3_raw : 1500, chan4_raw : 1500, chan5_raw : 1500, chan6_raw : 1500, chan7_raw : 1500, chan8_raw : 1500, rssi : 0}
2019-06-19 14:47:58.865114 RAW_IMU {time_usec : 1135400658, xacc : 0, yacc : 1024, zacc : 0, xgyro : 0, ygyro : -1, zgyro : 0, xmag : -57, ymag : -407, zmag : 206}
2019-06-19 14:47:58.865114 SCALED_IMU2 {time_boot_ms : 1135400, xacc : 0, yacc : 1025, zacc : 0, xgyro : 0, ygyro : 0, zgyro : 0, xmag : -57, ymag : -407, zmag : 206}
2019-06-19 14:47:58.866116 SCALED_PRESSURE3 {time_boot_ms : 1135400, press_abs : 0.0, press_diff : 0.0, temperature : 4242}
2019-06-19 14:47:58.867115 GPS_RAW_INT {time_usec : 1135166000, fix_type : 6, lat : 338103130, lon : -1183938670, alt : -250, eph : 121, epv : 200, vel : 0, cog : 0, satellites_visible : 10}
2019-06-19 14:47:58.867115 SYSTEM_TIME {time_unix_usec : 1560980867377221, time_boot_ms : 1135400}
2019-06-19 14:47:58.868115 AHRS {omegaIx : -0.002440147567540407, omegaIy : 0.0025843745097517967, omegaIz : -0.002317550592124462, accel_weight : 0.0, renorm_val : 0.0, error_rp : 0.0017459052614867687, error_yaw : 0.7101073861122131}
2019-06-19 14:47:58.868115 SIMSTATE {roll : -1.5707963705062866, pitch : -0.0, yaw : -1.5707963705062866, xacc : 0.0, yacc : 0.0, zacc : -9.997716903686523, xgyro : 0.0, ygyro : 0.0, zgyro : 0.0, lat : 338103130, lng : -1183938670}
2019-06-19 14:47:58.869114 AHRS3 {roll : -1.5760568380355835, pitch : -0.006671001203358173, yaw : -1.6567275524139404, altitude : -0.25999999046325684, lat : 338103120, lng : -1183938680, v1 : 0.0, v2 : 0.0, v3 : 0.0, v4 : 0.0}
2019-06-19 14:47:58.869114 HWSTATUS {Vcc : 5000, I2Cerr : 0}
2019-06-19 14:47:58.870115 LOCAL_POSITION_NED {time_boot_ms : 1135400, x : -0.11880809813737869, y : -0.09704034775495529, z : 0.43751055002212524, vx : -0.1258631944656372, vy : -0.10130216926336288, vz : 0.02576083317399025}
2019-06-19 14:47:58.871115 BATTERY_STATUS {id : 0, battery_function : 0, type : 0, temperature : 32767, voltages : [24830, 65535, 65535, 65535, 65535, 65535, 65535, 65535, 65535, 65535], current_battery : 0, current_consumed : 0, energy_consumed : 0, battery_remaining : 100}
2019-06-19 14:47:58.871115 NAMED_VALUE_FLOAT {time_boot_ms : 1135400, name : CamTilt, value : 0.5}
2019-06-19 14:47:58.872114 NAMED_VALUE_FLOAT {time_boot_ms : 1135400, name : CamPan, value : 0.5}
2019-06-19 14:47:58.872114 NAMED_VALUE_FLOAT {time_boot_ms : 1135400, name : TetherTrn, value : 0.0}
2019-06-19 14:47:58.872114 NAMED_VALUE_FLOAT {time_boot_ms : 1135400, name : Lights1, value : -1.375}
2019-06-19 14:47:58.872114 NAMED_VALUE_FLOAT {time_boot_ms : 1135400, name : PilotGain, value : 0.5}
2019-06-19 14:47:59.110186 ATTITUDE {time_boot_ms : 1135650, roll : -1.575842022895813, pitch : -0.006675113923847675, yaw : -1.6569154262542725, rollspeed : -0.0013652547495439649, pitchspeed : 0.0017015974735841155, yawspeed : -0.0013773369137197733}
2019-06-19 14:47:59.113191 SYS_STATUS {onboard_control_sensors_present : 52493359, onboard_control_sensors_enabled : 35691567, onboard_control_sensors_health : 52468783, load : 0, voltage_battery : 24830, current_battery : 0, battery_remaining : 100, drop_rate_comm : 0, errors_comm : 0, errors_count1 : 0, errors_count2 : 0, errors_count3 : 0, errors_count4 : 0}
2019-06-19 14:47:59.115187 NAV_CONTROLLER_OUTPUT {nav_roll : -90.28909301757812, nav_pitch : -0.3824540972709656, nav_bearing : -94, target_bearing : 39, wp_dist : 0, alt_error : 0.22815154492855072, aspd_error : 0.0, xtrack_error : 0.0}
2019-06-19 14:47:59.116189 MISSION_CURRENT {seq : 0}
2019-06-19 14:47:59.120187 RAW_IMU {time_usec : 1135650558, xacc : 0, yacc : 1020, zacc : 0, xgyro : 1, ygyro : 0, zgyro : 0, xmag : -57, ymag : -407, zmag : 206}
2019-06-19 14:47:59.120187 SCALED_IMU2 {time_boot_ms : 1135650, xacc : 0, yacc : 1020, zacc : 0, xgyro : 0, ygyro : 0, zgyro : 0, xmag : -57, ymag : -407, zmag : 206}
2019-06-19 14:47:59.120892 SCALED_IMU3 {time_boot_ms : 1135650, xacc : 0, yacc : 0, zacc : 0, xgyro : 0, ygyro : 0, zgyro : 0, xmag : -57, ymag : -407, zmag : 206}
2019-06-19 14:47:59.121187 SCALED_PRESSURE {time_boot_ms : 1135650, press_abs : 1044.453857421875, press_diff : 0.0, temperature : 2992}
2019-06-19 14:47:59.121187 SCALED_PRESSURE3 {time_boot_ms : 1135650, press_abs : 0.0, press_diff : 0.0, temperature : 4242}
2019-06-19 14:47:59.121187 SENSOR_OFFSETS {mag_ofs_x : 5, mag_ofs_y : 13, mag_ofs_z : -18, mag_declination : 0.2361595183610916, raw_press : 104445, raw_temp : 2992, gyro_cal_x : 0.0, gyro_cal_y : 0.0, gyro_cal_z : 0.0, accel_cal_x : 0.0010000000474974513, accel_cal_y : 0.0010000000474974513, accel_cal_z : 0.0010000000474974513}
2019-06-19 14:47:59.122188 GPS_RAW_INT {time_usec : 1135566000, fix_type : 6, lat : 338103130, lon : -1183938670, alt : -250, eph : 121, epv : 200, vel : 0, cog : 0, satellites_visible : 10}
2019-06-19 14:47:59.122188 SYSTEM_TIME {time_unix_usec : 1560980867627121, time_boot_ms : 1135650}
2019-06-19 14:47:59.123188 SIMSTATE {roll : -1.5707963705062866, pitch : -0.0, yaw : -1.5707963705062866, xacc : 0.0, yacc : 0.0, zacc : -9.996964454650879, xgyro : 0.0, ygyro : 0.0, zgyro : 0.0, lat : 338103130, lng : -1183938670}
2019-06-19 14:47:59.124189 AHRS2 {roll : -1.5724034309387207, pitch : -0.00045611601672135293, yaw : 0.747844398021698, altitude : 0.0, lat : 0, lng : 0}
2019-06-19 14:47:59.124189 AHRS3 {roll : -1.575842022895813, pitch : -0.006675113923847675, yaw : -1.6569154262542725, altitude : -0.23999999463558197, lat : 338103120, lng : -1183938680, v1 : 0.0, v2 : 0.0, v3 : 0.0, v4 : 0.0}
2019-06-19 14:47:59.125188 HWSTATUS {Vcc : 5000, I2Cerr : 0}
2019-06-19 14:47:59.125188 MOUNT_STATUS {target_system : 0, target_component : 0, pointing_a : 0, pointing_b : 0, pointing_c : 0}
2019-06-19 14:47:59.125188 EKF_STATUS_REPORT {flags : 831, velocity_variance : 0.033113542944192886, pos_horiz_variance : 0.01726772077381611, pos_vert_variance : 0.3368351459503174, compass_variance : 0.04941461607813835, terrain_alt_variance : 0.0}
2019-06-19 14:47:59.126189 LOCAL_POSITION_NED {time_boot_ms : 1135650, x : -0.11996591091156006, y : -0.09760516881942749, z : 0.4181515574455261, vx : -0.12660928070545197, vy : -0.10196149349212646, vz : -0.03361546993255615}
2019-06-19 14:47:59.126189 VIBRATION {time_usec : 1135650558, vibration_x : 0.005843138322234154, vibration_y : 0.292741596698761, vibration_z : 0.005737081170082092, clipping_0 : 0, clipping_1 : 0, clipping_2 : 0}
2019-06-19 14:47:59.129195 NAMED_VALUE_FLOAT {time_boot_ms : 1135650, name : Lights2, value : 0.5}
2019-06-19 14:47:59.340334 ATTITUDE {time_boot_ms : 1135900, roll : -1.5757801532745361, pitch : -0.006681730505079031, yaw : -1.6570950746536255, rollspeed : -0.0015771016478538513, pitchspeed : 0.0015597078017890453, yawspeed : -0.0012127843219786882}
2019-06-19 14:47:59.341322 GLOBAL_POSITION_INT {time_boot_ms : 1135900, lat : 338103120, lon : -1183938680, alt : -230, relative_alt : -409, vx : -12, vy : -10, vz : 0, hdg : 26506}
2019-06-19 14:47:59.342323 SYS_STATUS {onboard_control_sensors_present : 52493359, onboard_control_sensors_enabled : 35691567, onboard_control_sensors_health : 52468783, load : 0, voltage_battery : 24830, current_battery : 0, battery_remaining : 100, drop_rate_comm : 0, errors_comm : 0, errors_count1 : 0, errors_count2 : 0, errors_count3 : 0, errors_count4 : 0}
2019-06-19 14:47:59.343322 POWER_STATUS {Vcc : 5000, Vservo : 0, flags : 0}
2019-06-19 14:47:59.344322 MEMINFO {brkval : 0, freemem : 65535}
2019-06-19 14:47:59.344322 NAV_CONTROLLER_OUTPUT {nav_roll : -90.2855453491211, nav_pitch : -0.38283321261405945, nav_bearing : -94, target_bearing : 39, wp_dist : 0, alt_error : 0.2190818339586258, aspd_error : 0.0, xtrack_error : 0.0}
2019-06-19 14:47:59.345323 VFR_HUD {airspeed : 0.0, groundspeed : 0.1626211553812027, heading : 265, throttle : 0, alt : -0.22999998927116394, climb : -0.0031659631058573723}
2019-06-19 14:47:59.348321 SCALED_PRESSURE {time_boot_ms : 1135900, press_abs : 1053.6148681640625, press_diff : 0.0, temperature : 2989}
2019-06-19 14:47:59.348321 SCALED_PRESSURE3 {time_boot_ms : 1135900, press_abs : 0.0, press_diff : 0.0, temperature : 4242}
2019-06-19 14:47:59.349322 SYSTEM_TIME {time_unix_usec : 1560980867877021, time_boot_ms : 1135900}
2019-06-19 14:47:59.350324 AHRS {omegaIx : -0.0024419373366981745, omegaIy : 0.0025878758169710636, omegaIz : -0.0023191641084849834, accel_weight : 0.0, renorm_val : 0.0, error_rp : 0.0017257059225812554, error_yaw : 0.7097905278205872}
2019-06-19 14:47:59.352324 AHRS3 {roll : -1.5757801532745361, pitch : -0.006681730505079031, yaw : -1.6570950746536255, altitude : -0.22999998927116394, lat : 338103120, lng : -1183938680, v1 : 0.0, v2 : 0.0, v3 : 0.0, v4 : 0.0}
2019-06-19 14:47:59.352324 HWSTATUS {Vcc : 5000, I2Cerr : 0}
2019-06-19 14:47:59.352324 MOUNT_STATUS {target_system : 0, target_component : 0, pointing_a : 0, pointing_b : 0, pointing_c : 0}
2019-06-19 14:47:59.352324 EKF_STATUS_REPORT {flags : 831, velocity_variance : 0.033061884343624115, pos_horiz_variance : 0.017326032742857933, pos_vert_variance : 0.18624480068683624, compass_variance : 0.049541670829057693, terrain_alt_variance : 0.0}
2019-06-19 14:47:59.353322 LOCAL_POSITION_NED {time_boot_ms : 1135900, x : -0.12105819582939148, y : -0.09839027374982834, z : 0.4090818464756012, vx : -0.1264917254447937, vy : -0.10220315307378769, vz : 0.0031659631058573723}
2019-06-19 14:47:59.354323 NAMED_VALUE_FLOAT {time_boot_ms : 1135900, name : CamTilt, value : 0.5}
2019-06-19 14:47:59.355325 NAMED_VALUE_FLOAT {time_boot_ms : 1135900, name : TetherTrn, value : 0.0}
2019-06-19 14:47:59.590616 ATTITUDE {time_boot_ms : 1136150, roll : -1.5758856534957886, pitch : -0.006683459039777517, yaw : -1.6572725772857666, rollspeed : -0.0014298349851742387, pitchspeed : 0.0017053366173058748, yawspeed : -0.0013479548506438732}
2019-06-19 14:47:59.592606 POWER_STATUS {Vcc : 5000, Vservo : 0, flags : 0}
2019-06-19 14:47:59.593606 MEMINFO {brkval : 0, freemem : 65535}
2019-06-19 14:47:59.593606 NAV_CONTROLLER_OUTPUT {nav_roll : -90.29158782958984, nav_pitch : -0.38293567299842834, nav_bearing : -94, target_bearing : 39, wp_dist : 0, alt_error : 0.2416115701198578, aspd_error : 0.0, xtrack_error : 0.0}
2019-06-19 14:47:59.594606 MISSION_CURRENT {seq : 0}
2019-06-19 14:47:59.595618 VFR_HUD {airspeed : 0.0, groundspeed : 0.16167078912258148, heading : 265, throttle : 0, alt : -0.25999999046325684, climb : 0.02157749980688095}
2019-06-19 14:47:59.597618 SERVO_OUTPUT_RAW {time_usec : 1136150358, port : 0, servo1_raw : 1500, servo2_raw : 1500, servo3_raw : 1500, servo4_raw : 1500, servo5_raw : 1500, servo6_raw : 1500, servo7_raw : 1500, servo8_raw : 1500}
2019-06-19 14:47:59.597618 RC_CHANNELS_RAW {time_boot_ms : 1136150, port : 0, chan1_raw : 1500, chan2_raw : 1500, chan3_raw : 1500, chan4_raw : 1500, chan5_raw : 1500, chan6_raw : 1500, chan7_raw : 1500, chan8_raw : 1500, rssi : 0}
2019-06-19 14:47:59.598605 RC_CHANNELS {time_boot_ms : 1136150, chancount : 16, chan1_raw : 1500, chan2_raw : 1500, chan3_raw : 1500, chan4_raw : 1500, chan5_raw : 1500, chan6_raw : 1500, chan7_raw : 1500, chan8_raw : 1500, chan9_raw : 0, chan10_raw : 0, chan11_raw : 0, chan12_raw : 0, chan13_raw : 0, chan14_raw : 0, chan15_raw : 0, chan16_raw : 0, chan17_raw : 0, chan18_raw : 0, rssi : 0}
2019-06-19 14:47:59.598605 RAW_IMU {time_usec : 1136150358, xacc : 0, yacc : 1020, zacc : 0, xgyro : 1, ygyro : 0, zgyro : 0, xmag : -57, ymag : -407, zmag : 206}
2019-06-19 14:47:59.598605 SCALED_IMU3 {time_boot_ms : 1136150, xacc : 0, yacc : 0, zacc : 0, xgyro : 0, ygyro : 0, zgyro : 0, xmag : -57, ymag : -407, zmag : 206}
2019-06-19 14:47:59.599607 SCALED_PRESSURE {time_boot_ms : 1136150, press_abs : 1025.2532958984375, press_diff : 0.0, temperature : 2997}
2019-06-19 14:47:59.599607 SCALED_PRESSURE3 {time_boot_ms : 1136150, press_abs : 0.0, press_diff : 0.0, temperature : 4242}
2019-06-19 14:47:59.599607 GPS_RAW_INT {time_usec : 1135966000, fix_type : 6, lat : 338103130, lon : -1183938670, alt : -250, eph : 121, epv : 200, vel : 0, cog : 0, satellites_visible : 10}
2019-06-19 14:47:59.601605 SIMSTATE {roll : -1.5707963705062866, pitch : -0.0, yaw : -1.5707963705062866, xacc : 0.0, yacc : 0.0, zacc : -9.996776580810547, xgyro : 0.0, ygyro : 0.0, zgyro : 0.0, lat : 338103130, lng : -1183938670}
2019-06-19 14:47:59.602607 HWSTATUS {Vcc : 5000, I2Cerr : 0}
2019-06-19 14:47:59.602607 MOUNT_STATUS {target_system : 0, target_component : 0, pointing_a : 0, pointing_b : 0, pointing_c : 0}
2019-06-19 14:47:59.603617 LOCAL_POSITION_NED {time_boot_ms : 1136150, x : -0.1198325976729393, y : -0.09750959277153015, z : 0.431611567735672, vx : -0.12530271708965302, vy : -0.10216003656387329, vz : -0.02157749980688095}
2019-06-19 14:47:59.604617 NAMED_VALUE_FLOAT {time_boot_ms : 1136150, name : CamTilt, value : 0.5}
2019-06-19 14:47:59.605606 NAMED_VALUE_FLOAT {time_boot_ms : 1136150, name : TetherTrn, value : 0.0}
2019-06-19 14:47:59.605606 NAMED_VALUE_FLOAT {time_boot_ms : 1136150, name : Lights1, value : -1.375}
2019-06-19 14:47:59.605606 NAMED_VALUE_FLOAT {time_boot_ms : 1136150, name : Lights2, value : 0.5}
2019-06-19 14:47:59.605606 NAMED_VALUE_FLOAT {time_boot_ms : 1136150, name : PilotGain, value : 0.5}
2019-06-19 14:47:59.606605 NAMED_VALUE_FLOAT {time_boot_ms : 1136150, name : InputHold, value : 0.0}
2019-06-19 14:47:59.823279 ATTITUDE {time_boot_ms : 1136400, roll : -1.5761349201202393, pitch : -0.006704172119498253, yaw : -1.6574342250823975, rollspeed : -0.0015137381851673126, pitchspeed : 0.0016999926883727312, yawspeed : -0.0014380686916410923}
2019-06-19 14:47:59.825295 SYS_STATUS {onboard_control_sensors_present : 52493359, onboard_control_sensors_enabled : 35691567, onboard_control_sensors_health : 52468783, load : 0, voltage_battery : 24830, current_battery : 0, battery_remaining : 100, drop_rate_comm : 0, errors_comm : 0, errors_count1 : 0, errors_count2 : 0, errors_count3 : 0, errors_count4 : 0}
2019-06-19 14:47:59.826296 POWER_STATUS {Vcc : 5000, Vservo : 0, flags : 0}
2019-06-19 14:47:59.826296 MEMINFO {brkval : 0, freemem : 65535}
2019-06-19 14:47:59.827282 VFR_HUD {airspeed : 0.0, groundspeed : 0.1612863391637802, heading : 265, throttle : 0, alt : -0.29999998211860657, climb : -0.041511744260787964}
2019-06-19 14:47:59.828502 SERVO_OUTPUT_RAW {time_usec : 1136400258, port : 0, servo1_raw : 1500, servo2_raw : 1500, servo3_raw : 1500, servo4_raw : 1500, servo5_raw : 1500, servo6_raw : 1500, servo7_raw : 1500, servo8_raw : 1500}
2019-06-19 14:47:59.829282 RC_CHANNELS_RAW {time_boot_ms : 1136400, port : 0, chan1_raw : 1500, chan2_raw : 1500, chan3_raw : 1500, chan4_raw : 1500, chan5_raw : 1500, chan6_raw : 1500, chan7_raw : 1500, chan8_raw : 1500, rssi : 0}
2019-06-19 14:47:59.830282 SCALED_IMU2 {time_boot_ms : 1136400, xacc : 0, yacc : 1020, zacc : 0, xgyro : 0, ygyro : 0, zgyro : 0, xmag : -57, ymag : -407, zmag : 206}
2019-06-19 14:47:59.830282 SCALED_IMU3 {time_boot_ms : 1136400, xacc : 0, yacc : 0, zacc : 0, xgyro : 0, ygyro : 0, zgyro : 0, xmag : -57, ymag : -407, zmag : 206}
2019-06-19 14:47:59.830282 SCALED_PRESSURE {time_boot_ms : 1136400, press_abs : 1056.9945068359375, press_diff : 0.0, temperature : 2988}
2019-06-19 14:47:59.832283 AHRS {omegaIx : -0.0024376835208386183, omegaIy : 0.002583913505077362, omegaIz : -0.0023150541819632053, accel_weight : 0.0, renorm_val : 0.0, error_rp : 0.0017088124295696616, error_yaw : 0.7094780802726746}
2019-06-19 14:47:59.833282 SIMSTATE {roll : -1.5707963705062866, pitch : -0.0, yaw : -1.5707963705062866, xacc : 0.0, yacc : 0.0, zacc : -9.997279167175293, xgyro : 0.0, ygyro : 0.0, zgyro : 0.0, lat : 338103130, lng : -1183938670}
2019-06-19 14:47:59.834294 MOUNT_STATUS {target_system : 0, target_component : 0, pointing_a : 0, pointing_b : 0, pointing_c : 0}
2019-06-19 14:47:59.835282 EKF_STATUS_REPORT {flags : 831, velocity_variance : 0.03436487540602684, pos_horiz_variance : 0.017475061118602753, pos_vert_variance : 0.34783509373664856, compass_variance : 0.05024402216076851, terrain_alt_variance : 0.0}
2019-06-19 14:47:59.835282 LOCAL_POSITION_NED {time_boot_ms : 1136400, x : -0.11966807395219803, y : -0.09770660847425461, z : 0.4702107608318329, vx : -0.12479431927204132, vy : -0.10217465460300446, vz : 0.041511744260787964}
2019-06-19 14:47:59.835282 VIBRATION {time_usec : 1136400258, vibration_x : 0.005646742880344391, vibration_y : 0.8581452965736389, vibration_z : 0.005525666289031506, clipping_0 : 0, clipping_1 : 0, clipping_2 : 0}
2019-06-19 14:47:59.836281 BATTERY_STATUS {id : 0, battery_function : 0, type : 0, temperature : 32767, voltages : [24830, 65535, 65535, 65535, 65535, 65535, 65535, 65535, 65535, 65535], current_battery : 0, current_consumed : 0, energy_consumed : 0, battery_remaining : 100}
2019-06-19 14:47:59.836281 NAMED_VALUE_FLOAT {time_boot_ms : 1136400, name : CamTilt, value : 0.5}
2019-06-19 14:47:59.837281 NAMED_VALUE_FLOAT {time_boot_ms : 1136400, name : CamPan, value : 0.5}
2019-06-19 14:47:59.838280 NAMED_VALUE_FLOAT {time_boot_ms : 1136400, name : Lights1, value : -1.375}
2019-06-19 14:48:00.088808 ATTITUDE {time_boot_ms : 1136650, roll : -1.5761173963546753, pitch : -0.0067225308157503605, yaw : -1.657605528831482, rollspeed : -0.0015400233678519726, pitchspeed : 0.0016487804241478443, yawspeed : -0.0014229806838557124}
2019-06-19 14:48:00.090794 GLOBAL_POSITION_INT {time_boot_ms : 1136650, lat : 338103120, lon : -1183938680, alt : -290, relative_alt : -469, vx : -12, vy : -10, vz : -1, hdg : 26503}
2019-06-19 14:48:00.090794 SYS_STATUS {onboard_control_sensors_present : 52493359, onboard_control_sensors_enabled : 35691567, onboard_control_sensors_health : 52468783, load : 0, voltage_battery : 24830, current_battery : 0, battery_remaining : 100, drop_rate_comm : 0, errors_comm : 0, errors_count1 : 0, errors_count2 : 0, errors_count3 : 0, errors_count4 : 0}
2019-06-19 14:48:00.093806 MEMINFO {brkval : 0, freemem : 65535}
2019-06-19 14:48:00.094806 MISSION_CURRENT {seq : 0}
2019-06-19 14:48:00.095797 VFR_HUD {airspeed : 0.0, groundspeed : 0.16297639906406403, heading : 265, throttle : 0, alt : -0.28999999165534973, climb : 0.015592855401337147}
2019-06-19 14:48:00.096805 SERVO_OUTPUT_RAW {time_usec : 1136650158, port : 0, servo1_raw : 1500, servo2_raw : 1500, servo3_raw : 1500, servo4_raw : 1500, servo5_raw : 1500, servo6_raw : 1500, servo7_raw : 1500, servo8_raw : 1500}
2019-06-19 14:48:00.097808 RC_CHANNELS_RAW {time_boot_ms : 1136650, port : 0, chan1_raw : 1500, chan2_raw : 1500, chan3_raw : 1500, chan4_raw : 1500, chan5_raw : 1500, chan6_raw : 1500, chan7_raw : 1500, chan8_raw : 1500, rssi : 0}
2019-06-19 14:48:00.097808 RC_CHANNELS {time_boot_ms : 1136650, chancount : 16, chan1_raw : 1500, chan2_raw : 1500, chan3_raw : 1500, chan4_raw : 1500, chan5_raw : 1500, chan6_raw : 1500, chan7_raw : 1500, chan8_raw : 1500, chan9_raw : 0, chan10_raw : 0, chan11_raw : 0, chan12_raw : 0, chan13_raw : 0, chan14_raw : 0, chan15_raw : 0, chan16_raw : 0, chan17_raw : 0, chan18_raw : 0, rssi : 0}
2019-06-19 14:48:00.098795 RAW_IMU {time_usec : 1136650158, xacc : 0, yacc : 1020, zacc : 0, xgyro : 0, ygyro : 0, zgyro : 0, xmag : -57, ymag : -407, zmag : 206}
2019-06-19 14:48:00.099813 SCALED_PRESSURE {time_boot_ms : 1136650, press_abs : 1051.0947265625, press_diff : 0.0, temperature : 2990}
2019-06-19 14:48:00.102794 SIMSTATE {roll : -1.5707963705062866, pitch : -0.0, yaw : -1.5707963705062866, xacc : 0.0, yacc : 0.0, zacc : -9.996519088745117, xgyro : 0.0, ygyro : 0.0, zgyro : 0.0, lat : 338103130, lng : -1183938670}
2019-06-19 14:48:00.102794 AHRS2 {roll : -1.5723870992660522, pitch : -0.00043344299774616957, yaw : 0.7487693428993225, altitude : 0.0, lat : 0, lng : 0}
2019-06-19 14:48:00.103794 MOUNT_STATUS {target_system : 0, target_component : 0, pointing_a : 0, pointing_b : 0, pointing_c : 0}
2019-06-19 14:48:00.107795 NAMED_VALUE_FLOAT {time_boot_ms : 1136650, name : TetherTrn, value : 0.0}
2019-06-19 14:48:00.107795 NAMED_VALUE_FLOAT {time_boot_ms : 1136650, name : Lights1, value : -1.375}
2019-06-19 14:48:00.108795 NAMED_VALUE_FLOAT {time_boot_ms : 1136650, name : Lights2, value : 0.5}
2019-06-19 14:48:00.108795 NAMED_VALUE_FLOAT {time_boot_ms : 1136650, name : PilotGain, value : 0.5}
2019-06-19 14:48:00.109795 NAMED_VALUE_FLOAT {time_boot_ms : 1136650, name : InputHold, value : 0.0}
2019-06-19 14:48:00.327087 SYS_STATUS {onboard_control_sensors_present : 52493359, onboard_control_sensors_enabled : 35691567, onboard_control_sensors_health : 52468783, load : 0, voltage_battery : 24830, current_battery : 0, battery_remaining : 100, drop_rate_comm : 0, errors_comm : 0, errors_count1 : 0, errors_count2 : 0, errors_count3 : 0, errors_count4 : 0}
2019-06-19 14:48:00.328086 POWER_STATUS {Vcc : 5000, Vservo : 0, flags : 0}
2019-06-19 14:48:00.328086 NAV_CONTROLLER_OUTPUT {nav_roll : -90.3063735961914, nav_pitch : -0.38640546798706055, nav_bearing : -94, target_bearing : 39, wp_dist : 0, alt_error : 0.3007442057132721, aspd_error : 0.0, xtrack_error : 0.0}
2019-06-19 14:48:00.330084 RC_CHANNELS_RAW {time_boot_ms : 1136900, port : 0, chan1_raw : 1500, chan2_raw : 1500, chan3_raw : 1500, chan4_raw : 1500, chan5_raw : 1500, chan6_raw : 1500, chan7_raw : 1500, chan8_raw : 1500, rssi : 0}
2019-06-19 14:48:00.331084 RC_CHANNELS {time_boot_ms : 1136900, chancount : 16, chan1_raw : 1500, chan2_raw : 1500, chan3_raw : 1500, chan4_raw : 1500, chan5_raw : 1500, chan6_raw : 1500, chan7_raw : 1500, chan8_raw : 1500, chan9_raw : 0, chan10_raw : 0, chan11_raw : 0, chan12_raw : 0, chan13_raw : 0, chan14_raw : 0, chan15_raw : 0, chan16_raw : 0, chan17_raw : 0, chan18_raw : 0, rssi : 0}
2019-06-19 14:48:00.331084 SCALED_IMU2 {time_boot_ms : 1136900, xacc : 0, yacc : 1020, zacc : 0, xgyro : 0, ygyro : 0, zgyro : 0, xmag : -57, ymag : -407, zmag : 206}
2019-06-19 14:48:00.331084 SCALED_IMU3 {time_boot_ms : 1136900, xacc : 0, yacc : 0, zacc : 0, xgyro : 0, ygyro : 0, zgyro : 0, xmag : -57, ymag : -407, zmag : 206}
2019-06-19 14:48:00.332085 SCALED_PRESSURE {time_boot_ms : 1136900, press_abs : 1052.48876953125, press_diff : 0.0, temperature : 2990}
2019-06-19 14:48:00.332085 SCALED_PRESSURE3 {time_boot_ms : 1136900, press_abs : 0.0, press_diff : 0.0, temperature : 4242}
2019-06-19 14:48:00.332085 GPS_RAW_INT {time_usec : 1136766000, fix_type : 6, lat : 338103130, lon : -1183938670, alt : -250, eph : 121, epv : 200, vel : 0, cog : 0, satellites_visible : 10}
2019-06-19 14:48:00.334084 AHRS {omegaIx : -0.0024307258427143097, omegaIy : 0.0025781774893403053, omegaIz : -0.002308347262442112, accel_weight : 0.0, renorm_val : 0.0, error_rp : 0.0016999715007841587, error_yaw : 0.7091635465621948}
2019-06-19 14:48:00.334084 SIMSTATE {roll : -1.5707963705062866, pitch : -0.0, yaw : -1.5707963705062866, xacc : 0.0, yacc : 0.0, zacc : -9.99716567993164, xgyro : 0.0, ygyro : 0.0, zgyro : 0.0, lat : 338103130, lng : -1183938670}
2019-06-19 14:48:00.334084 AHRS2 {roll : -1.5723917484283447, pitch : -0.0004262360744178295, yaw : 0.7489929795265198, altitude : 0.0, lat : 0, lng : 0}
2019-06-19 14:48:00.334084 AHRS3 {roll : -1.5761438608169556, pitch : -0.006744048558175564, yaw : -1.6577929258346558, altitude : -0.3199999928474426, lat : 338103120, lng : -1183938680, v1 : 0.0, v2 : 0.0, v3 : 0.0, v4 : 0.0}
2019-06-19 14:48:00.335085 HWSTATUS {Vcc : 5000, I2Cerr : 0}
2019-06-19 14:48:00.335085 EKF_STATUS_REPORT {flags : 831, velocity_variance : 0.03361295908689499, pos_horiz_variance : 0.017509644851088524, pos_vert_variance : 0.1699577122926712, compass_variance : 0.05043872445821762, terrain_alt_variance : 0.0}
2019-06-19 14:48:00.336086 LOCAL_POSITION_NED {time_boot_ms : 1136900, x : -0.1216631606221199, y : -0.09932845830917358, z : 0.4907442033290863, vx : -0.12689055502414703, vy : -0.10334963351488113, vz : 0.03488369286060333}
2019-06-19 14:48:00.336086 BATTERY_STATUS {id : 0, battery_function : 0, type : 0, temperature : 32767, voltages : [24830, 65535, 65535, 65535, 65535, 65535, 65535, 65535, 65535, 65535], current_battery : 0, current_consumed : 0, energy_consumed : 0, battery_remaining : 100}
2019-06-19 14:48:00.337084 NAMED_VALUE_FLOAT {time_boot_ms : 1136900, name : CamTilt, value : 0.5}
2019-06-19 14:48:00.337084 NAMED_VALUE_FLOAT {time_boot_ms : 1136900, name : TetherTrn, value : 0.0}
2019-06-19 14:48:00.448175 HEARTBEAT {type : 12, autopilot : 3, base_mode : 81, custom_mode : 19, system_status : 3, mavlink_version : 3}
2019-06-19 14:48:00.578560 ATTITUDE {time_boot_ms : 1137150, roll : -1.5762569904327393, pitch : -0.006746283732354641, yaw : -1.6579649448394775, rollspeed : -0.001527007669210434, pitchspeed : 0.0015337991062551737, yawspeed : -0.0013237043749541044}
2019-06-19 14:48:00.579556 SYS_STATUS {onboard_control_sensors_present : 52493359, onboard_control_sensors_enabled : 35691567, onboard_control_sensors_health : 52468783, load : 0, voltage_battery : 24830, current_battery : 0, battery_remaining : 100, drop_rate_comm : 0, errors_comm : 0, errors_count1 : 0, errors_count2 : 0, errors_count3 : 0, errors_count4 : 0}
2019-06-19 14:48:00.580556 POWER_STATUS {Vcc : 5000, Vservo : 0, flags : 0}
2019-06-19 14:48:00.581557 NAV_CONTROLLER_OUTPUT {nav_roll : -90.3128662109375, nav_pitch : -0.3865335285663605, nav_bearing : -94, target_bearing : 39, wp_dist : 0, alt_error : 0.3350647985935211, aspd_error : 0.0, xtrack_error : 0.0}
2019-06-19 14:48:00.583568 SERVO_OUTPUT_RAW {time_usec : 1137150791, port : 0, servo1_raw : 1500, servo2_raw : 1500, servo3_raw : 1500, servo4_raw : 1500, servo5_raw : 1500, servo6_raw : 1500, servo7_raw : 1500, servo8_raw : 1500}
2019-06-19 14:48:00.583568 RC_CHANNELS_RAW {time_boot_ms : 1137150, port : 0, chan1_raw : 1500, chan2_raw : 1500, chan3_raw : 1500, chan4_raw : 1500, chan5_raw : 1500, chan6_raw : 1500, chan7_raw : 1500, chan8_raw : 1500, rssi : 0}
2019-06-19 14:48:00.584560 RC_CHANNELS {time_boot_ms : 1137150, chancount : 16, chan1_raw : 1500, chan2_raw : 1500, chan3_raw : 1500, chan4_raw : 1500, chan5_raw : 1500, chan6_raw : 1500, chan7_raw : 1500, chan8_raw : 1500, chan9_raw : 0, chan10_raw : 0, chan11_raw : 0, chan12_raw : 0, chan13_raw : 0, chan14_raw : 0, chan15_raw : 0, chan16_raw : 0, chan17_raw : 0, chan18_raw : 0, rssi : 0}
2019-06-19 14:48:00.584560 RAW_IMU {time_usec : 1137150791, xacc : 0, yacc : 1020, zacc : 0, xgyro : 0, ygyro : -1, zgyro : 0, xmag : -57, ymag : -407, zmag : 206}
2019-06-19 14:48:00.584560 SCALED_IMU2 {time_boot_ms : 1137150, xacc : 0, yacc : 1020, zacc : 0, xgyro : 0, ygyro : -1, zgyro : 1, xmag : -57, ymag : -407, zmag : 206}
2019-06-19 14:48:00.585570 SCALED_IMU3 {time_boot_ms : 1137150, xacc : 0, yacc : 0, zacc : 0, xgyro : 0, ygyro : 0, zgyro : 0, xmag : -57, ymag : -407, zmag : 206}
2019-06-19 14:48:00.586557 SYSTEM_TIME {time_unix_usec : 1560980869127354, time_boot_ms : 1137150}
2019-06-19 14:48:00.588570 AHRS3 {roll : -1.5762569904327393, pitch : -0.006746283732354641, yaw : -1.6579649448394775, altitude : -0.3499999940395355, lat : 338103120, lng : -1183938680, v1 : 0.0, v2 : 0.0, v3 : 0.0, v4 : 0.0}
2019-06-19 14:48:00.588570 HWSTATUS {Vcc : 5000, I2Cerr : 0}
2019-06-19 14:48:00.590557 VIBRATION {time_usec : 1137150791, vibration_x : 0.005721504334360361, vibration_y : 0.1353781670331955, vibration_z : 0.005375881679356098, clipping_0 : 0, clipping_1 : 0, clipping_2 : 0}
2019-06-19 14:48:00.591557 NAMED_VALUE_FLOAT {time_boot_ms : 1137150, name : TetherTrn, value : 0.0}
2019-06-19 14:48:00.828627 ATTITUDE {time_boot_ms : 1137400, roll : -1.576319694519043, pitch : -0.006762228440493345, yaw : -1.6581428050994873, rollspeed : -0.0014861878007650375, pitchspeed : 0.0017027383437380195, yawspeed : -0.0014712181873619556}
2019-06-19 14:48:00.830628 SYS_STATUS {onboard_control_sensors_present : 52493359, onboard_control_sensors_enabled : 35691567, onboard_control_sensors_health : 52468783, load : 0, voltage_battery : 24830, current_battery : 0, battery_remaining : 100, drop_rate_comm : 0, errors_comm : 0, errors_count1 : 0, errors_count2 : 0, errors_count3 : 0, errors_count4 : 0}
2019-06-19 14:48:00.832630 MEMINFO {brkval : 0, freemem : 65535}
2019-06-19 14:48:00.834629 VFR_HUD {airspeed : 0.0, groundspeed : 0.1627587527036667, heading : 265, throttle : 0, alt : -0.3799999952316284, climb : -0.05699505656957626}
2019-06-19 14:48:00.835629 SERVO_OUTPUT_RAW {time_usec : 1137400691, port : 0, servo1_raw : 1500, servo2_raw : 1500, servo3_raw : 1500, servo4_raw : 1500, servo5_raw : 1500, servo6_raw : 1500, servo7_raw : 1500, servo8_raw : 1500}
2019-06-19 14:48:00.836632 RC_CHANNELS_RAW {time_boot_ms : 1137400, port : 0, chan1_raw : 1500, chan2_raw : 1500, chan3_raw : 1500, chan4_raw : 1500, chan5_raw : 1500, chan6_raw : 1500, chan7_raw : 1500, chan8_raw : 1500, rssi : 0}
2019-06-19 14:48:00.837630 RC_CHANNELS {time_boot_ms : 1137400, chancount : 16, chan1_raw : 1500, chan2_raw : 1500, chan3_raw : 1500, chan4_raw : 1500, chan5_raw : 1500, chan6_raw : 1500, chan7_raw : 1500, chan8_raw : 1500, chan9_raw : 0, chan10_raw : 0, chan11_raw : 0, chan12_raw : 0, chan13_raw : 0, chan14_raw : 0, chan15_raw : 0, chan16_raw : 0, chan17_raw : 0, chan18_raw : 0, rssi : 0}
2019-06-19 14:48:00.837630 RAW_IMU {time_usec : 1137400691, xacc : 0, yacc : 1020, zacc : 0, xgyro : 0, ygyro : 0, zgyro : 0, xmag : -57, ymag : -407, zmag : 206}
2019-06-19 14:48:00.838627 SCALED_IMU2 {time_boot_ms : 1137400, xacc : 0, yacc : 1020, zacc : 0, xgyro : 0, ygyro : 0, zgyro : 0, xmag : -57, ymag : -407, zmag : 206}
2019-06-19 14:48:00.838627 SCALED_IMU3 {time_boot_ms : 1137400, xacc : 0, yacc : 0, zacc : 0, xgyro : 0, ygyro : 0, zgyro : 0, xmag : -57, ymag : -407, zmag : 206}
2019-06-19 14:48:00.838627 SCALED_PRESSURE {time_boot_ms : 1137400, press_abs : 1030.0953369140625, press_diff : 0.0, temperature : 2996}
2019-06-19 14:48:00.838627 SCALED_PRESSURE3 {time_boot_ms : 1137400, press_abs : 0.0, press_diff : 0.0, temperature : 4242}
2019-06-19 14:48:00.839629 SYSTEM_TIME {time_unix_usec : 1560980869377254, time_boot_ms : 1137400}
2019-06-19 14:48:00.840628 AHRS {omegaIx : -0.002430609194561839, omegaIy : 0.002578598912805319, omegaIz : -0.002308154245838523, accel_weight : 0.0, renorm_val : 0.0, error_rp : 0.0016909491969272494, error_yaw : 0.7088509202003479}
2019-06-19 14:48:00.841629 AHRS2 {roll : -1.572386622428894, pitch : -0.0004307756316848099, yaw : 0.7494441866874695, altitude : 0.0, lat : 0, lng : 0}
2019-06-19 14:48:00.841629 HWSTATUS {Vcc : 5000, I2Cerr : 0}
2019-06-19 14:48:00.842629 MOUNT_STATUS {target_system : 0, target_component : 0, pointing_a : 0, pointing_b : 0, pointing_c : 0}
2019-06-19 14:48:00.843629 VIBRATION {time_usec : 1137400691, vibration_x : 0.006063798908144236, vibration_y : 0.5210568308830261, vibration_z : 0.0056422860361635685, clipping_0 : 0, clipping_1 : 0, clipping_2 : 0}
2019-06-19 14:48:00.843629 BATTERY_STATUS {id : 0, battery_function : 0, type : 0, temperature : 32767, voltages : [24830, 65535, 65535, 65535, 65535, 65535, 65535, 65535, 65535, 65535], current_battery : 0, current_consumed : 0, energy_consumed : 0, battery_remaining : 100}
2019-06-19 14:48:00.844629 NAMED_VALUE_FLOAT {time_boot_ms : 1137400, name : TetherTrn, value : 0.0}
2019-06-19 14:48:00.844629 NAMED_VALUE_FLOAT {time_boot_ms : 1137400, name : Lights1, value : -1.375}
2019-06-19 14:48:00.845629 NAMED_VALUE_FLOAT {time_boot_ms : 1137400, name : PilotGain, value : 0.5}
2019-06-19 14:48:01.105652 MEMINFO {brkval : 0, freemem : 65535}
2019-06-19 14:48:01.105652 NAV_CONTROLLER_OUTPUT {nav_roll : -90.30558013916016, nav_pitch : -0.38749662041664124, nav_bearing : -95, target_bearing : 39, wp_dist : 0, alt_error : 0.33419424295425415, aspd_error : 0.0, xtrack_error : 0.0}
2019-06-19 14:48:01.106651 MISSION_CURRENT {seq : 0}
2019-06-19 14:48:01.106651 VFR_HUD {airspeed : 0.0, groundspeed : 0.16412897408008575, heading : 264, throttle : 0, alt : -0.3499999940395355, climb : 0.02982296608388424}
2019-06-19 14:48:01.107653 SERVO_OUTPUT_RAW {time_usec : 1137650591, port : 0, servo1_raw : 1500, servo2_raw : 1500, servo3_raw : 1500, servo4_raw : 1500, servo5_raw : 1500, servo6_raw : 1500, servo7_raw : 1500, servo8_raw : 1500}
2019-06-19 14:48:01.107653 RC_CHANNELS_RAW {time_boot_ms : 1137650, port : 0, chan1_raw : 1500, chan2_raw : 1500, chan3_raw : 1500, chan4_raw : 1500, chan5_raw : 1500, chan6_raw : 1500, chan7_raw : 1500, chan8_raw : 1500, rssi : 0}
2019-06-19 14:48:01.108652 RC_CHANNELS {time_boot_ms : 1137650, chancount : 16, chan1_raw : 1500, chan2_raw : 1500, chan3_raw : 1500, chan4_raw : 1500, chan5_raw : 1500, chan6_raw : 1500, chan7_raw : 1500, chan8_raw : 1500, chan9_raw : 0, chan10_raw : 0, chan11_raw : 0, chan12_raw : 0, chan13_raw : 0, chan14_raw : 0, chan15_raw : 0, chan16_raw : 0, chan17_raw : 0, chan18_raw : 0, rssi : 0}
2019-06-19 14:48:01.108652 RAW_IMU {time_usec : 1137650591, xacc : 0, yacc : 1020, zacc : 0, xgyro : 0, ygyro : 0, zgyro : 0, xmag : -57, ymag : -407, zmag : 206}
2019-06-19 14:48:01.108652 SCALED_IMU2 {time_boot_ms : 1137650, xacc : 0, yacc : 1020, zacc : 0, xgyro : 0, ygyro : 0, zgyro : 0, xmag : -57, ymag : -407, zmag : 206}
2019-06-19 14:48:01.109651 SCALED_IMU3 {time_boot_ms : 1137650, xacc : 0, yacc : 0, zacc : 0, xgyro : 0, ygyro : 0, zgyro : 0, xmag : -57, ymag : -407, zmag : 206}
2019-06-19 14:48:01.109651 SCALED_PRESSURE {time_boot_ms : 1137650, press_abs : 1031.588623046875, press_diff : 0.0, temperature : 2995}
2019-06-19 14:48:01.110652 SIMSTATE {roll : -1.5707963705062866, pitch : -0.0, yaw : -1.5707963705062866, xacc : 0.0, yacc : 0.0, zacc : -9.996007919311523, xgyro : 0.0, ygyro : 0.0, zgyro : 0.0, lat : 338103130, lng : -1183938670}
2019-06-19 14:48:01.111653 AHRS2 {roll : -1.5723878145217896, pitch : -0.0004299075808376074, yaw : 0.7496763467788696, altitude : 0.0, lat : 0, lng : 0}
2019-06-19 14:48:01.111653 AHRS3 {roll : -1.5761299133300781, pitch : -0.006763122510164976, yaw : -1.6583236455917358, altitude : -0.3499999940395355, lat : 338103120, lng : -1183938680, v1 : 0.0, v2 : 0.0, v3 : 0.0, v4 : 0.0}
2019-06-19 14:48:01.113652 BATTERY_STATUS {id : 0, battery_function : 0, type : 0, temperature : 32767, voltages : [24830, 65535, 65535, 65535, 65535, 65535, 65535, 65535, 65535, 65535], current_battery : 0, current_consumed : 0, energy_consumed : 0, battery_remaining : 100}
2019-06-19 14:48:01.113652 NAMED_VALUE_FLOAT {time_boot_ms : 1137650, name : CamTilt, value : 0.5}
2019-06-19 14:48:01.113652 NAMED_VALUE_FLOAT {time_boot_ms : 1137650, name : CamPan, value : 0.5}
2019-06-19 14:48:01.114652 NAMED_VALUE_FLOAT {time_boot_ms : 1137650, name : Lights1, value : -1.375}
2019-06-19 14:48:01.338678 SYS_STATUS {onboard_control_sensors_present : 52493359, onboard_control_sensors_enabled : 35691567, onboard_control_sensors_health : 52468783, load : 0, voltage_battery : 24830, current_battery : 0, battery_remaining : 100, drop_rate_comm : 0, errors_comm : 0, errors_count1 : 0, errors_count2 : 0, errors_count3 : 0, errors_count4 : 0}
2019-06-19 14:48:01.340679 POWER_STATUS {Vcc : 5000, Vservo : 0, flags : 0}
2019-06-19 14:48:01.340679 MEMINFO {brkval : 0, freemem : 65535}
2019-06-19 14:48:01.341689 NAV_CONTROLLER_OUTPUT {nav_roll : -90.28861999511719, nav_pitch : -0.3873276114463806, nav_bearing : -95, target_bearing : 39, wp_dist : 0, alt_error : 0.2965623736381531, aspd_error : 0.0, xtrack_error : 0.0}
2019-06-19 14:48:01.341689 MISSION_CURRENT {seq : 0}
2019-06-19 14:48:01.342696 SERVO_OUTPUT_RAW {time_usec : 1137900491, port : 0, servo1_raw : 1500, servo2_raw : 1500, servo3_raw : 1500, servo4_raw : 1500, servo5_raw : 1500, servo6_raw : 1500, servo7_raw : 1500, servo8_raw : 1500}
2019-06-19 14:48:01.343692 RAW_IMU {time_usec : 1137900491, xacc : 0, yacc : 1020, zacc : 0, xgyro : 0, ygyro : 0, zgyro : 0, xmag : -57, ymag : -407, zmag : 206}
2019-06-19 14:48:01.344682 SCALED_IMU2 {time_boot_ms : 1137900, xacc : 0, yacc : 1020, zacc : 0, xgyro : 0, ygyro : 0, zgyro : 0, xmag : -57, ymag : -407, zmag : 206}
2019-06-19 14:48:01.344682 SCALED_IMU3 {time_boot_ms : 1137900, xacc : 0, yacc : 0, zacc : 0, xgyro : 0, ygyro : 0, zgyro : 0, xmag : -57, ymag : -407, zmag : 206}
2019-06-19 14:48:01.345693 GPS_RAW_INT {time_usec : 1137766000, fix_type : 6, lat : 338103130, lon : -1183938670, alt : -250, eph : 121, epv : 200, vel : 0, cog : 0, satellites_visible : 10}
2019-06-19 14:48:01.346681 SYSTEM_TIME {time_unix_usec : 1560980869877054, time_boot_ms : 1137900}
2019-06-19 14:48:01.346681 AHRS {omegaIx : -0.0024329673033207655, omegaIy : 0.0025830906815826893, omegaIz : -0.00231024157255888, accel_weight : 0.0, renorm_val : 0.0, error_rp : 0.0016979090869426727, error_yaw : 0.7085306644439697}
2019-06-19 14:48:01.346681 SIMSTATE {roll : -1.5707963705062866, pitch : -0.0, yaw : -1.5707963705062866, xacc : 0.0, yacc : 0.0, zacc : -9.997127532958984, xgyro : 0.0, ygyro : 0.0, zgyro : 0.0, lat : 338103130, lng : -1183938670}
2019-06-19 14:48:01.347681 AHRS2 {roll : -1.5723929405212402, pitch : -0.0004248858313076198, yaw : 0.7498977780342102, altitude : 0.0, lat : 0, lng : 0}
2019-06-19 14:48:01.347681 AHRS3 {roll : -1.575833797454834, pitch : -0.006760172080248594, yaw : -1.6585036516189575, altitude : -0.3100000023841858, lat : 338103120, lng : -1183938680, v1 : 0.0, v2 : 0.0, v3 : 0.0, v4 : 0.0}
2019-06-19 14:48:01.347681 HWSTATUS {Vcc : 5000, I2Cerr : 0}
2019-06-19 14:48:01.348694 MOUNT_STATUS {target_system : 0, target_component : 0, pointing_a : 0, pointing_b : 0, pointing_c : 0}
2019-06-19 14:48:01.348694 EKF_STATUS_REPORT {flags : 831, velocity_variance : 0.034464940428733826, pos_horiz_variance : 0.017486345022916794, pos_vert_variance : 0.18541376292705536, compass_variance : 0.05090567469596863, terrain_alt_variance : 0.0}
2019-06-19 14:48:01.349682 LOCAL_POSITION_NED {time_boot_ms : 1137900, x : -0.12222302705049515, y : -0.09927234053611755, z : 0.4865623712539673, vx : -0.12841613590717316, vy : -0.10300662368535995, vz : -0.01789257302880287}
2019-06-19 14:48:01.349682 VIBRATION {time_usec : 1137900491, vibration_x : 0.005369269754737616, vibration_y : 0.507843017578125, vibration_z : 0.005371626000851393, clipping_0 : 0, clipping_1 : 0, clipping_2 : 0}
2019-06-19 14:48:01.349682 BATTERY_STATUS {id : 0, battery_function : 0, type : 0, temperature : 32767, voltages : [24830, 65535, 65535, 65535, 65535, 65535, 65535, 65535, 65535, 65535], current_battery : 0, current_consumed : 0, energy_consumed : 0, battery_remaining : 100}
2019-06-19 14:48:01.350694 NAMED_VALUE_FLOAT {time_boot_ms : 1137900, name : TetherTrn, value : 0.0}
2019-06-19 14:48:01.350694 NAMED_VALUE_FLOAT {time_boot_ms : 1137900, name : Lights1, value : -1.375}
2019-06-19 14:48:01.351681 NAMED_VALUE_FLOAT {time_boot_ms : 1137900, name : PilotGain, value : 0.5}
2019-06-19 14:48:01.351681 NAMED_VALUE_FLOAT {time_boot_ms : 1137900, name : InputHold, value : 0.0}
2019-06-19 14:48:01.477888 HEARTBEAT {type : 12, autopilot : 3, base_mode : 81, custom_mode : 19, system_status : 3, mavlink_version : 3}
2019-06-19 14:48:01.610269 ATTITUDE {time_boot_ms : 1138150, roll : -1.5755962133407593, pitch : -0.006747147999703884, yaw : -1.6586836576461792, rollspeed : -0.001580971758812666, pitchspeed : 0.0016649269964545965, yawspeed : -0.0012523771729320288}
2019-06-19 14:48:01.613270 POWER_STATUS {Vcc : 5000, Vservo : 0, flags : 0}
2019-06-19 14:48:01.619270 RC_CHANNELS {time_boot_ms : 1138150, chancount : 16, chan1_raw : 1500, chan2_raw : 1500, chan3_raw : 1500, chan4_raw : 1500, chan5_raw : 1500, chan6_raw : 1500, chan7_raw : 1500, chan8_raw : 1500, chan9_raw : 0, chan10_raw : 0, chan11_raw : 0, chan12_raw : 0, chan13_raw : 0, chan14_raw : 0, chan15_raw : 0, chan16_raw : 0, chan17_raw : 0, chan18_raw : 0, rssi : 0}
2019-06-19 14:48:01.619270 RAW_IMU {time_usec : 1138150391, xacc : 0, yacc : 591, zacc : 0, xgyro : 0, ygyro : 0, zgyro : 1, xmag : -57, ymag : -407, zmag : 206}
2019-06-19 14:48:01.620270 SCALED_PRESSURE {time_boot_ms : 1138150, press_abs : 1039.871826171875, press_diff : 0.0, temperature : 2993}
2019-06-19 14:48:01.621271 SCALED_PRESSURE3 {time_boot_ms : 1138150, press_abs : 0.0, press_diff : 0.0, temperature : 4242}
2019-06-19 14:48:01.621271 GPS_RAW_INT {time_usec : 1137966000, fix_type : 6, lat : 338103130, lon : -1183938670, alt : -250, eph : 121, epv : 200, vel : 0, cog : 0, satellites_visible : 10}
2019-06-19 14:48:01.622270 SYSTEM_TIME {time_unix_usec : 1560980870126954, time_boot_ms : 1138150}
2019-06-19 14:48:01.623270 AHRS {omegaIx : -0.0024302315432578325, omegaIy : 0.0025804229080677032, omegaIz : -0.002307583810761571, accel_weight : 0.0, renorm_val : 0.0, error_rp : 0.0017017337959259748, error_yaw : 0.7083411812782288}
2019-06-19 14:48:01.624270 AHRS2 {roll : -1.5723888874053955, pitch : -0.00042333523742854595, yaw : 0.7501248121261597, altitude : 0.0, lat : 0, lng : 0}
2019-06-19 14:48:01.624270 AHRS3 {roll : -1.5755962133407593, pitch : -0.006747147999703884, yaw : -1.6586836576461792, altitude : -0.26999998092651367, lat : 338103120, lng : -1183938680, v1 : 0.0, v2 : 0.0, v3 : 0.0, v4 : 0.0}
2019-06-19 14:48:01.625270 HWSTATUS {Vcc : 5000, I2Cerr : 0}
2019-06-19 14:48:01.625270 MOUNT_STATUS {target_system : 0, target_component : 0, pointing_a : 0, pointing_b : 0, pointing_c : 0}
2019-06-19 14:48:01.627273 LOCAL_POSITION_NED {time_boot_ms : 1138150, x : -0.12085633724927902, y : -0.09793463349342346, z : 0.4455924332141876, vx : -0.12713418900966644, vy : -0.10197970271110535, vz : 0.005426883697509766}
2019-06-19 14:48:01.628273 NAMED_VALUE_FLOAT {time_boot_ms : 1138150, name : CamTilt, value : 0.5}
2019-06-19 14:48:01.630271 NAMED_VALUE_FLOAT {time_boot_ms : 1138150, name : TetherTrn, value : 0.0}
2019-06-19 14:48:01.631272 NAMED_VALUE_FLOAT {time_boot_ms : 1138150, name : PilotGain, value : 0.5}
2019-06-19 14:48:01.632276 NAMED_VALUE_FLOAT {time_boot_ms : 1138150, name : InputHold, value : 0.0}
2019-06-19 14:48:01.879293 ATTITUDE {time_boot_ms : 1138400, roll : -1.5755267143249512, pitch : -0.006755760870873928, yaw : -1.6588585376739502, rollspeed : -0.0014362204819917679, pitchspeed : 0.001760771032422781, yawspeed : -0.0013179380912333727}
2019-06-19 14:48:01.882291 GLOBAL_POSITION_INT {time_boot_ms : 1138400, lat : 338103120, lon : -1183938680, alt : -260, relative_alt : -435, vx : -12, vy : -10, vz : -4, hdg : 26496}
